{"de68bdce7b0574746c3fd6c7632a4554199f1cd641bee098900da594": {"c994b51170eef25f97921877489bee4cd0db339df0e4b2268ba7a8c7": {"province": "California", "city": "San Francisco", "term": "Fall", "name": "Chris Vandevelde", "sector": "Private", "title": "Android \"Jellybean\" Developer", "country": "USA", "industry": "Mobile Money", "termNumber": "5", "isWorking": "Yes", "employerUrl": "https://squareup.com/ca", "mapLocation": {"lat": 37.782028, "lng": -122.405807, "name": "Square, Inc.", "address": "110 5th Street, San Francisco, California, United States"}, "typeOfWork": "Android...shit...", "year": "2012", "employerPrevious": "Yes", "jobPrevious": "Yes", "employer": "Square", "": ""}, "87dbc43429f97fed6dcd91386c17326bf8edd6531e665b46a9652b05": {"province": "California", "city": "San Fransisco", "term": "Winter", "name": "Chris Vandevelde", "sector": "Private", "title": "Software Engineering Intern - Android", "country": "USA", "industry": "Financial Services?", "termNumber": "4", "isWorking": "Yes", "employerUrl": "", "mapLocation": {"lat": 37.782028, "lng": -122.405807, "name": "Square, Inc.", "address": "110 5th Street, San Francisco, California, United States"}, "typeOfWork": "Mobile Software", "year": "2012", "employerPrevious": "No", "jobPrevious": "No", "employer": "Square, Inc.", "": ""}}, "aeec347ba61ecb41e552ff29f31dbb7a6cfac811a2463e3df2a997e8": {"c994b51170eef25f97921877489bee4cd0db339df0e4b2268ba7a8c7": {"province": "Australia", "city": "Australia", "term": "Fall", "name": "Vithu Jeya", "sector": "", "title": "Product", "country": "Australia", "industry": "", "termNumber": "5", "isWorking": "Yes", "employerUrl": "", "mapLocation": {"lat": -31.952446, "lng": 115.849987, "name": "Baker Hughes Australia Pty Ltd", "address": "level 7/256 St Georges Terrace, Perth WA, Australia"}, "typeOfWork": "India", "year": "2012", "employerPrevious": "No", "jobPrevious": "No", "employer": "SCAVENGER", "": ""}}, "6599e6d42eb50d60309b52c6971d2b0d4d759b378f388f1e1993f3cc": {"5c7a1999689356f08ea72dd40a8fc0b185461b349c407b53d305af26": {"province": "ON", "city": "Ottawa", "term": "Winter", "name": "Helen Tsvirinkal", "title": "SharePoint Analyst", "country": "Canada", "industry": "Government Administration", "year": "2014", "termNumber": "1", "employerUrl": "http://www.agr.gc.ca/index_e.php", "classYear": "2018", "address": "1341 Baseline Road", "employer": "Agri-Food and Agriculture Canada", "description": ""}}, "dd20afceaf577795059f7ea0dff64c964e8359f9e3b5403e2d91cc95": {"5c7a1999689356f08ea72dd40a8fc0b185461b349c407b53d305af26": {"province": "ON", "city": "Waterloo", "term": "Winter", "name": "Stephanie Hu", "title": "Software QA", "country": "Canada", "industry": "", "year": "2014", "termNumber": "1", "employerUrl": "http://hbcommunications.com/", "classYear": "2018", "address": "26 Pepper Street Waterloo, ON", "employer": "HB Canada Communications Limited", "description": ""}}, "347548c6b68d117892dbb582c97c79aaedc5e755c638054bb0961eb8": {"5c7a1999689356f08ea72dd40a8fc0b185461b349c407b53d305af26": {"province": "ON", "city": "Toronto", "term": "Winter", "name": "Shirley Ng", "title": "Computer and Technical Support", "country": "Canada", "industry": "Education", "year": "2014", "termNumber": "1", "employerUrl": "http://www.edu.gov.on.ca/eng/", "classYear": "2018", "address": "900 Bay St", "employer": "Ontario Ministry of Education", "description": ""}}, "99881768f2f090d826f2a95582e481c9c3a20bd704f294fb58be6db5": {"b86e5931f575e14a898ce76690cfbce827a24b1f8eaaa5b602e29c0d": {"province": "Ontario", "city": "Waterloo", "term": "Fall", "name": "Michal Ulman", "title": "Developer", "country": "Canada", "industry": "Education Management", "address": "295 Hagey Blvd.", "termNumber": "2", "employerUrl": "uintuition.com", "classYear": "2017", "year": "2013", "employer": "uIntuition Inc.", "description": "Develop project management system, web developer, and graphic designer"}}, "0c22dd1c9c32d2ced129de97398557a37e90048780da5854c887d360": {"5c7a1999689356f08ea72dd40a8fc0b185461b349c407b53d305af26": {"province": "NY", "city": "New York", "term": "Winter", "name": "Chris Ngan", "title": "Big Data Engineer", "country": "USA", "industry": "Computer Software", "year": "2014", "termNumber": "4", "employerUrl": "http://www.mortardata.com/", "classYear": "2016", "address": "1 Liberty Place", "employer": "Mortar Data", "description": "Hustling\n"}}, "6f8cf0fd6c8274acbb292a59167ef059702a63b8c44d8438a2eabdda": {"55bd4065ca67c891c240b6626ee0ee7283afb779bac738d084bd832c": {"province": "Ontario", "city": "Toronto", "term": "Winter", "titlePrevious": "No", "name": "Michelle Pugne", "sector": "Public", "title": "Web Developer", "country": "Canada", "industry": "Software", "termNumber": "1", "isWorking": "Yes", "employerUrl": "", "mapLocation": {"lat": 43.763356, "lng": -79.412192, "name": "Public Works and Government Services Canada", "address": "4900 Yonge, Toronto, ON, Canada"}, "typeOfWork": "Web Dev", "year": "2010", "employerPrevious": "No", "employer": "Public Works and Government Services Canada"}, "b0fc93f797e918f3cc741493cebf1235abb9a4e6d61de0158f793521": {"province": "Ontario", "city": "Kitchener", "term": "Summer", "name": "Michelle Pugne", "sector": "Private", "title": "Product Designer", "country": "Canada", "industry": "Software", "termNumber": "3", "isWorking": "Yes", "employerUrl": "", "mapLocation": {"lat": 43.451174, "lng": -80.498012, "name": "Desire2Learn Incorporated", "address": "151 Charles Street West #400 Kitchener, ON N2G 1H6 Canada, Canada"}, "typeOfWork": "Product Design", "year": "2011", "employerPrevious": "Yes", "jobPrevious": "Yes", "employer": "Desire2Learn Inc."}, "97e27f11f5820116c87c2ac9100f440b6938db280443b4ebda94426a": {"province": "Ontario", "city": "Kitchener", "term": "Summer", "name": "Michelle Pugne", "sector": "", "title": "User Experience Designer", "country": "Canada", "industry": "Software", "termNumber": "6", "isWorking": "Yes", "employerUrl": "http://www.communitech.ca/", "mapLocation": {"lat": 43.451401, "lng": -80.498916, "name": "Communitech Hub", "address": "151 Charles Street West, Kitchener, ON, Canada"}, "typeOfWork": "Software", "year": "2013", "employerPrevious": "No", "jobPrevious": "No", "employer": "Communitech", "": ""}, "87dbc43429f97fed6dcd91386c17326bf8edd6531e665b46a9652b05": {"province": "Ontario", "city": "Kitchener", "term": "Winter", "name": "Michelle Pugne", "sector": "Private", "title": "Product Designer", "country": "Canada", "industry": "Software", "termNumber": "4", "isWorking": "Yes", "employerUrl": "", "mapLocation": {"lat": 43.451174, "lng": -80.498012, "name": "Desire2Learn Incorporated", "address": "151 Charles Street West #400 Kitchener, ON N2G 1H6 Canada, Canada"}, "typeOfWork": "Product Design", "year": "2012", "employerPrevious": "", "jobPrevious": "", "employer": "Desire2Learn", "": ""}}, "8c6e62ea73456284a346d95846f9bdfd6008fbd0ae05881899d72b83": {"c994b51170eef25f97921877489bee4cd0db339df0e4b2268ba7a8c7": {"province": "Ontario", "city": "Peterborough", "term": "Fall", "name": "Chelsea Haemel", "": "", "title": "Project Technician", "country": "Canada", "industry": "Environment", "year": "2012", "termNumber": "2", "employerUrl": "", "classYear": "2016", "address": "52 Hunter St E", "employer": "Cambium", "description": "Helping out around the office with various tasks and projects, going into the field to help with environmental sampling, good first and second term, great for looking at lots of areas of environmental work, and good to get familiar with office environment"}, "97e27f11f5820116c87c2ac9100f440b6938db280443b4ebda94426a": {"province": "Ontario", "city": "Waterloo", "term": "Summer", "name": "Chelsea Haemel", "": "", "title": "Content Developer", "country": "Canada", "industry": "Math and Education Software", "year": "2013", "termNumber": "3", "employerUrl": "", "classYear": "2016", "address": "615 Kumpf Dr", "employer": "Maplesoft", "description": "Converted Textbook problems into online format. Great if you like doing the same thing every day. Probably good as a first or second co-op term, otherwise very tedious. Would not recommend it for 3rd term or above"}, "87dbc43429f97fed6dcd91386c17326bf8edd6531e665b46a9652b05": {"province": "Ontario", "city": "Peterborough", "term": "Winter", "name": "Chelsea Haemel", "title": "Project Technician", "country": "Canada", "industry": "Environment", "year": "2012", "termNumber": "1", "employerUrl": "", "classYear": "2016", "address": "52 Hunter St E", "employer": "Cambium", "description": "Helping out around the office with various tasks and projects, going into the field to help with environmental sampling, good first and second term, great for looking at lots of areas of environmental work, and good to get familiar with office environment"}}, "14f9d68bbc07189fa32de8615dce665a544bec52fe99c60a0f141623": {"c994b51170eef25f97921877489bee4cd0db339df0e4b2268ba7a8c7": {"province": "Ontario", "city": "Toronto", "term": "Fall", "name": "Angela Gu", "": "", "title": "Software Developer", "country": "Canada", "industry": "Web Application", "year": "2012", "termNumber": "2", "employerUrl": "", "classYear": "2016", "address": "1183 King St West", "employer": "Southpaw Technology", "description": "Built digital asset management systems for clients using JavaScript, CSS, HTML, python"}, "97e27f11f5820116c87c2ac9100f440b6938db280443b4ebda94426a": {"province": "Ontario", "city": "Toronto", "term": "Summer", "name": "Angela Gu", "": "", "title": "Software Developer", "country": "Canada", "industry": "Data Integration Software", "year": "2013", "termNumber": "3", "employerUrl": "", "classYear": "2016", "address": "60 Adelaide St E", "employer": "Informatica", "description": ""}, "87dbc43429f97fed6dcd91386c17326bf8edd6531e665b46a9652b05": {"province": "Ontario", "city": "Toronto", "term": "Winter", "name": "Angela Gu", "title": "Business Analyst", "country": "Canada", "industry": "IT", "year": "2012", "termNumber": "1", "employerUrl": "", "classYear": "2016", "address": "66 Wellington St W", "employer": "TD Canada Trust", "description": "QA stuff"}}, "f58aecac9517c420b7857e2f3015a11bc74877cd6400215bb9f91e1d": {"55bd4065ca67c891c240b6626ee0ee7283afb779bac738d084bd832c": {"province": "Ontario", "city": "Toronto", "term": "Winter", "titlePrevious": "No", "name": "Alex Huras", "sector": "Private", "title": "Technician?", "country": "Canada", "industry": "Geothermal HVAC", "termNumber": "1", "isWorking": "Yes", "employerUrl": "", "mapLocation": {"lat": 43.653226, "lng": -79.3831843, "name": "Toronto", "address": "Toronto, ON, Canada"}, "typeOfWork": "Plumbing etc.", "year": "2010", "employerPrevious": "No", "employer": "Polar Bear WSHP"}, "c994b51170eef25f97921877489bee4cd0db339df0e4b2268ba7a8c7": {"province": "New York", "city": "New York", "term": "Fall", "name": "Alex Huras", "sector": "Private", "title": "Data Engineering Intern", "country": "USA", "industry": "Advertising", "termNumber": "5", "isWorking": "Yes", "employerUrl": "http://magnetinc.net/", "mapLocation": {"lat": 41.119112, "lng": -73.707585, "name": "Cine Magnetics", "address": "100 Business Park Drive, Armonk, NY, United States"}, "typeOfWork": "Software/CS", "year": "2012", "employerPrevious": "no", "jobPrevious": "no.", "employer": "Magnetic Inc.", "": ""}, "b0fc93f797e918f3cc741493cebf1235abb9a4e6d61de0158f793521": {"province": "Ontario", "city": "Toronto", "term": "Summer", "name": "Alex Huras", "sector": "Private", "title": "Trading System Analyst", "country": "Canada", "industry": "Finance", "termNumber": "3", "isWorking": "Yes", "employerUrl": "", "mapLocation": {"lat": 43.648044, "lng": -79.383455, "name": "ITG Canada Corporation", "address": "130 King W, Toronto, ON, Canada"}, "typeOfWork": "sysadmin, analyst", "year": "2011", "employerPrevious": "Yes", "jobPrevious": "No", "employer": "ITG Canada Corp (TriAct)"}, "87dbc43429f97fed6dcd91386c17326bf8edd6531e665b46a9652b05": {"province": "California", "city": "Palo Alto", "term": "Winter", "name": "Alex Huras", "sector": "Private", "title": "Systems Engineer", "country": "USA", "industry": "News/software", "termNumber": "4", "isWorking": "Yes", "employerUrl": "", "mapLocation": {"lat": 37.4418834, "lng": -122.1430195, "name": "Palo Alto", "address": "Palo Alto, CA, USA"}, "typeOfWork": "Software", "year": "2012", "employerPrevious": "No", "jobPrevious": "No", "employer": "SkyGrid", "": ""}}, "8b7d33e60fe8773bcf6f6ee4d20ad0284241a9c0432981b8aece8073": {"87dbc43429f97fed6dcd91386c17326bf8edd6531e665b46a9652b05": {"province": "Ontario", "city": "Toronto", "term": "Winter", "name": "Kevin Zhang", "sector": "", "title": "Business Analyst", "country": "Canada", "industry": "", "termNumber": "4", "isWorking": "", "employerUrl": "", "mapLocation": {"lat": 43.643257, "lng": -79.38224, "name": "PwC", "address": "18 York Street, Toronto, ON, Canada"}, "typeOfWork": "", "year": "2012", "employerPrevious": "", "jobPrevious": "", "employer": "PWC", "": ""}}, "172f57d85d6b068357849d7400ae0ce64d5a4afc6e736c70802251e4": {"c994b51170eef25f97921877489bee4cd0db339df0e4b2268ba7a8c7": {"province": "Ontario", "city": "Toronto", "term": "Fall", "name": "Rayomand Patel", "sector": "Private", "title": "Business Systems Analyst", "country": "Canada", "industry": "Banking", "termNumber": "5", "isWorking": "Yes", "employerUrl": "https://www.cibc.com/ca/personal.html", "mapLocation": {"lat": 43.647277, "lng": -79.384781, "name": "CIBC Branch & ATM", "address": "100 University Avenue, Toronto, ON, Canada"}, "typeOfWork": "IT", "year": "2012", "employerPrevious": "No", "jobPrevious": "No", "employer": "CIBC", "": ""}, "87dbc43429f97fed6dcd91386c17326bf8edd6531e665b46a9652b05": {"province": "Ontario", "city": "Waterloo", "term": "Winter", "name": "Rayomand Patel", "sector": "", "title": "Network Engineer", "country": "Canada", "industry": "", "termNumber": "4", "isWorking": "", "employerUrl": "", "mapLocation": {"lat": 43.479674, "lng": -80.543148, "name": "Research In Motion", "address": "176 Columbia Street West, Waterloo, ON, Canada"}, "typeOfWork": "", "year": "2012", "employerPrevious": "", "jobPrevious": "", "employer": "RIM", "": ""}}, "7feeb993f7cde0665131b47f56e30066d706337f98ee4510b3b31ce8": {"5c7a1999689356f08ea72dd40a8fc0b185461b349c407b53d305af26": {"province": "ON", "city": "Toronto", "term": "Winter", "name": "Kelly Li", "title": "UI/UX Designer", "country": "Canada", "industry": "Photography", "year": "2014", "termNumber": "1", "employerUrl": "http://500px.com/", "classYear": "2018", "address": "317 Adelaide St. West", "employer": "500px", "description": ""}}, "e1d7b34b5229349928c9f10f94124103ea91aa9781a62c1206c22527": {"271fca6f897eba601074c62b07eabe30b0a837dfcd45536a1ad55dd0": {"province": "ON", "city": "Ottawa", "term": "Winter", "titlePrevious": "N", "name": "Janice", "sector": "Private", "title": "Program Management/R&D intern", "country": "Canada", "industry": "Management Consulting", "year": "2011", "termNumber": "1", "isWorking": "Y", "employerUrl": "http://www.chipworks.com/", "classYear": "2015", "mapLocation": {"lat": 45.32819, "lng": -75.822944, "name": "Chipworks", "address": "1891 Robertson Road #500, Ottawa, ON, Canada"}, "address": "", "employerPrevious": "N", "employer": "Chipworks Inc", "description": "Helped patent intelligence program managers with quotes and statements of work. Did functional testing of internal image processing software designed to automatically annotate microscopic IC images for schematics"}, "2bbb78e381ee07e7f8422f2cf90f096602f38e6a73cec9598daf4704": {"province": "ON", "city": "Toronto", "term": "Summer", "titlePrevious": "N", "name": "Janice", "sector": "Private", "title": "QA analyst", "country": "Canada", "industry": "Information Technology and Services", "year": "2012", "termNumber": "3", "isWorking": "Y", "employerUrl": "http://fixmo.com/", "classYear": "2015", "mapLocation": {"lat": 45.498665, "lng": -73.570767, "name": "Inovia Capital Inc", "address": "1155 Boulevard Ren\u00e9 L\u00e9vesque #2701, Montreal, QC, Canada"}, "address": "", "employerPrevious": "N", "employer": "Fixmo Inc", "description": "Functional testing of mobile security app as part of a small team. Helped project manager with UI design."}, "466b3a3a913da2d9050efc62a8f1c9ad02ebbae5c84cd2c1c7bdf914": {"province": "QC", "city": "Montreal", "term": "Winter", "titlePrevious": "N", "name": "Janice", "sector": "Private", "title": "Consultant", "country": "Canada", "industry": "Information Technology and Services", "year": "2013", "termNumber": "4", "isWorking": "Y", "employerUrl": "http://erpguru.com/", "classYear": "2015", "mapLocation": {"lat": 45.545917, "lng": -73.660376, "name": "ERP Guru Inc", "address": "9880 Rue Clark #101, Montreal, QC, Canada"}, "address": "", "employerPrevious": "N", "employer": "ERP Guru", "description": "Wrote scripts for clients' Netsuite CRM ERP systems. Spoke with clients for requirements gathering and support"}, "0679b25b14f91f4bb1aa1249d91cfb1450f1466491f90fc8a1c86fb2": {"province": "QC", "city": "Gatineau", "term": "Fall", "titlePrevious": "N", "name": "Janice", "sector": "Public", "title": "Business Analyst (even though Jobmine job title claimed 'Data Modeler')", "country": "Canada", "industry": "Environmental Services", "year": "2011", "termNumber": "2", "isWorking": "Y", "employerUrl": "http://weather.gc.ca/canada_e.html", "classYear": "2015", "mapLocation": {"lat": 45.427719, "lng": -75.667555, "name": "Environment Canada", "address": "335 River Rd, Gloucester, ON, Canada"}, "address": "", "employerPrevious": "N", "employer": "Environment Canada", "description": "Analyzed & redesigned process for the publication of datasets to the Government of Canada Open Data Portal, eliminating bottlenecks\nand streamlining communication between scientists and data stewards. Engaged with EC scientists to process their datasets\n\n"}}, "9ca8c27b3b8975777b999f8e895f68d7171656cb3c5352d27b722d05": {"55bd4065ca67c891c240b6626ee0ee7283afb779bac738d084bd832c": {"province": "Ontario", "city": "Waterloo", "term": "Winter", "titlePrevious": "N/A", "name": "Richard Lesco", "sector": "Private", "title": "SV&V Handheld", "country": "Canada", "industry": "Telecommunications", "termNumber": "1", "isWorking": "Yes", "employerUrl": "", "mapLocation": {"lat": 43.479674, "lng": -80.543148, "name": "Research In Motion", "address": "176 Columbia Street West, Waterloo, ON, Canada"}, "typeOfWork": "Quality Assurance", "year": "2010", "employerPrevious": "N/A", "employer": "RIM"}, "c994b51170eef25f97921877489bee4cd0db339df0e4b2268ba7a8c7": {"province": "California", "city": "Sunnyvale", "term": "Fall", "name": "Richard Lesco", "sector": "Private", "title": "LTE Coexistence Engineer", "country": "USA", "industry": "", "termNumber": "5", "isWorking": "Yes", "employerUrl": "www.broadcom.com", "mapLocation": {"lat": 37.377139, "lng": -122.033667, "name": "Broadcom Corporation", "address": "190 Mathilda Place, Sunnyvale, CA, United States"}, "typeOfWork": "", "year": "2012", "employerPrevious": "No", "jobPrevious": "No", "employer": "Broadcom", "": ""}, "b0fc93f797e918f3cc741493cebf1235abb9a4e6d61de0158f793521": {"province": "Ontario", "city": "Toronto", "term": "Summer", "name": "Richard Lesco", "sector": "Private", "title": "CDMA Wireless Engineering Specialist", "country": "Canada", "industry": "Telecommunications", "termNumber": "3", "isWorking": "Yes", "employerUrl": "", "mapLocation": {"lat": 43.66743, "lng": -79.372665, "name": "Public Mobile", "address": "225 Wellesley Street East, Toronto, ON, Canada"}, "typeOfWork": "Network Engineering", "year": "2011", "employerPrevious": "No", "jobPrevious": "No", "employer": "Public Mobile"}, "87dbc43429f97fed6dcd91386c17326bf8edd6531e665b46a9652b05": {"province": "Ontario", "city": "Ottawa", "term": "Winter", "name": "Richard Lesco", "sector": "Public", "title": "Wireless System Research Engineering", "country": "Canada", "industry": "Wireless", "termNumber": "4", "isWorking": "Yes", "employerUrl": "", "mapLocation": {"lat": 45.420084, "lng": -75.702237, "name": "Industry Canada", "address": "235 Queen Street, Ottawa, ON, Canada"}, "typeOfWork": "Public & Private Sector Research", "year": "2012", "employerPrevious": "No", "jobPrevious": "No", "employer": "Industry Canada", "": ""}}, "fcfeacb1911b944912e6408bb7c59509eb8cd2d2c88b8d5840cdf32d": {"5c7a1999689356f08ea72dd40a8fc0b185461b349c407b53d305af26": {"province": "ON", "city": "Toronto", "term": "Winter", "name": "Tristan Amini", "title": "DevOps/Developer", "country": "Canada", "industry": "Computer Software", "year": "2014", "termNumber": "1", "employerUrl": "http://polar.me/", "classYear": "2018", "address": "156 Front Street", "employer": "Polar", "description": ""}}, "4a5f52949d27d3ae464f8d19a3bb44fa6a82f814891b32ab653ea3ed": {"c994b51170eef25f97921877489bee4cd0db339df0e4b2268ba7a8c7": {"province": "Ontario", "city": "Toronto", "term": "Fall", "name": "Matt Chong", "sector": "Private", "title": "Algorithmic Trading Developer", "country": "Canada", "industry": "Finance", "termNumber": "5", "isWorking": "Yes", "employerUrl": "http://www.itg.com/", "mapLocation": {"lat": 43.706008, "lng": -79.515586, "name": "ITG Canada Corporation", "address": "130 King W, York, ON, Canada"}, "typeOfWork": "Execution and algo trading", "year": "2012", "employerPrevious": "no", "jobPrevious": "no", "employer": "Investment Technology Group", "": ""}, "97e27f11f5820116c87c2ac9100f440b6938db280443b4ebda94426a": {"province": "Ontario", "city": "Toronto", "term": "Summer", "name": "Matt Chong", "sector": "", "title": "Automated Trading Developer", "country": "Canada", "industry": "Finance", "termNumber": "6", "isWorking": "Yes", "employerUrl": "http://www.tdsecurities.com/tds/content/HomePageTemplate?command=doHome", "mapLocation": {"lat": 43.642152, "lng": -79.381075, "name": "TD Canada Trust", "address": "15 York Street, Toronto, ON, Canada"}, "typeOfWork": "prop HFT", "year": "2013", "employerPrevious": "No", "jobPrevious": "No", "employer": "TD Securities", "": ""}}, "6d58075867a3639a3cb872c90522d3c34ff2ba72df06e6e86c96ab4a": {"271fca6f897eba601074c62b07eabe30b0a837dfcd45536a1ad55dd0": {"province": "ON", "city": "Toronto", "term": "Winter", "titlePrevious": "N", "name": "Nick Chen", "sector": "Private", "title": "Technical Advisor", "country": "Canada", "industry": "Law", "year": "2011", "termNumber": "1", "isWorking": "Y", "employerUrl": "http://www.blakes.com/English/Pages/default.aspx", "classYear": "2015", "mapLocation": {"lat": 43.648069, "lng": -79.379707, "name": "Blake Cassels & Graydon LLP\u200e", "address": "199 Bay Street #4000, Toronto, ON, Canada"}, "address": "", "employerPrevious": "N", "employer": "Blake, Cassels and Graydon", "description": "Good question"}}, "01df1b3d596f91bff3545cecb21f2f6b5b95d9df09227860e5510ea4": {"5c7a1999689356f08ea72dd40a8fc0b185461b349c407b53d305af26": {"province": "ON", "city": "Orillia", "term": "Winter", "name": "Hannah Van Opstal", "title": "Junior Mechanical Engineer", "country": "Canada", "industry": "Construction", "year": "2014", "termNumber": "1", "employerUrl": "http://www.steenhofbuilding.com/", "classYear": "2018", "address": "", "employer": "Steenhof Building Services", "description": "3D modelling for HVAC and plumbing systems"}}, "59312c993d2b449ce2d8f738929e0efc9fb85c599699349fbaa4516e": {"b0fc93f797e918f3cc741493cebf1235abb9a4e6d61de0158f793521": {"province": "Ontario", "city": "Oshawa", "term": "Summer", "name": "Julia Chernushevich", "sector": "Private", "title": "Electrical Technologies", "country": "Canada", "industry": "Automotive", "termNumber": "3", "isWorking": "Yes", "employerUrl": "", "mapLocation": {"lat": 43.89687, "lng": -78.85932, "name": "General Motors Centre", "address": "99 Athol Street East, Oshawa, ON, Canada"}, "typeOfWork": "Electrical, programming", "year": "2011", "employerPrevious": "No", "jobPrevious": "No", "employer": "General Motors"}, "87dbc43429f97fed6dcd91386c17326bf8edd6531e665b46a9652b05": {"province": "Ontario", "city": "Waterloo", "term": "Winter", "name": "Julia Chernushevich", "sector": "Private", "title": "Hardware Engineer - LCD & Illumination", "country": "Canada", "industry": "Wireless", "termNumber": "4", "isWorking": "Yes", "employerUrl": "", "mapLocation": {"lat": 43.479674, "lng": -80.543148, "name": "Research In Motion", "address": "176 Columbia Street West, Waterloo, ON, Canada"}, "typeOfWork": "R&D, Verification", "year": "2012", "employerPrevious": "No", "jobPrevious": "No", "employer": "RIM", "": ""}}, "99afbfabf2d3fd52c03b8bd3ad6c920da582367b8265d52bae4b0860": {"c994b51170eef25f97921877489bee4cd0db339df0e4b2268ba7a8c7": {"province": "Ontario", "city": "Markham", "term": "Fall", "name": "Gary Lam", "sector": "", "title": "Consultant", "country": "Canada", "industry": "Finance", "termNumber": "5", "isWorking": "Yes", "employerUrl": "http://www.cgi.com/en/canada", "mapLocation": {"lat": 43.869137, "lng": -79.309172, "name": "CGI", "address": "30 Shields Crt, Unionville, ON, Canada"}, "typeOfWork": "", "year": "2012", "employerPrevious": "No", "jobPrevious": "No", "employer": "CGI ", "": ""}, "87dbc43429f97fed6dcd91386c17326bf8edd6531e665b46a9652b05": {"province": "Ontario", "city": "Toronto", "term": "Winter", "name": "Gary Lam", "sector": "Private", "title": "Infrastructure Support Co-ordinator", "country": "Canada", "industry": "Enterprise Software", "termNumber": "4", "isWorking": "Yes", "employerUrl": "", "mapLocation": {"lat": 43.744409, "lng": -79.406335, "name": "NexJ Systems Inc.", "address": "Suite 700, 10 York Mills Road, Toronto, ON, Canada"}, "typeOfWork": "Tool Developer", "year": "2012", "employerPrevious": "", "jobPrevious": "", "employer": "NexJ Systems Inc.", "": ""}}, "40aa049dea9cda31d6b91b464bb6b40df43dddeaf5603e19af453302": {"55bd4065ca67c891c240b6626ee0ee7283afb779bac738d084bd832c": {"province": "Ontario", "city": "Ottawa", "term": "Winter", "titlePrevious": "No", "name": "Daxal Desai", "sector": "Private", "title": "Web developer / Network engineering", "country": "Canada", "industry": "PPP", "termNumber": "1", "isWorking": "Yes", "employerUrl": "", "mapLocation": {"lat": 45.407053, "lng": -75.694344, "name": "CPCS Transcom Ltd", "address": "72 Chamberlain Avenue, Ottawa, ON, Canada"}, "typeOfWork": "IT System support and network maintenance", "year": "2010", "employerPrevious": "Yes", "employer": "CPCS Transcom Ltd."}, "c994b51170eef25f97921877489bee4cd0db339df0e4b2268ba7a8c7": {"province": "Ontario", "city": "Toronto", "term": "Fall", "name": "Daxal Desai", "sector": "Public", "title": "Technical Systems Analyst", "country": "Canada", "industry": "Finance", "termNumber": "5", "isWorking": "Yes", "employerUrl": "https://www.rbccm.com/", "mapLocation": {"lat": 43.647092, "lng": -79.380318, "name": "RBC Dominion Securities Inc.", "address": "200 Bay St., Rbp South Tower, Ste. 3900, Toronto, ON, Canada"}, "typeOfWork": "", "year": "2012", "employerPrevious": "", "jobPrevious": "No", "employer": "RBC Capital", "": ""}, "97e27f11f5820116c87c2ac9100f440b6938db280443b4ebda94426a": {"province": "Ontario", "city": "Toronto", "term": "Summer", "name": "Daxal Desai", "sector": "", "title": "Portfolio Analyst Intern", "country": "Canada", "industry": "Finance", "termNumber": "6", "isWorking": "Yes", "employerUrl": "http://www.cppib.com/en/home.html", "mapLocation": {"lat": 43.652074, "lng": -79.378928, "name": "CPP Investment Board", "address": "1 Queen St E, Toronto, ON, Canada"}, "typeOfWork": "Finance / Software", "year": "2013", "employerPrevious": "No", "jobPrevious": "No", "employer": "CPP Investment Board", "": ""}, "87dbc43429f97fed6dcd91386c17326bf8edd6531e665b46a9652b05": {"province": "Ontario", "city": "Toronto", "term": "Winter", "name": "Daxal Desai", "sector": "Public", "title": "Trading Application Developer", "country": "Canada", "industry": "Finance", "termNumber": "4", "isWorking": "", "employerUrl": "", "mapLocation": {"lat": 43.647277, "lng": -79.384781, "name": "CIBC Branch & ATM", "address": "100 University Avenue, Toronto, ON, Canada"}, "typeOfWork": "Financial modelling", "year": "2012", "employerPrevious": "Yes", "jobPrevious": "No", "employer": "CIBC", "": ""}}, "38f1af261040cc9f89456fa9c51ab7023514903e16fca2c87ce961fe": {"87dbc43429f97fed6dcd91386c17326bf8edd6531e665b46a9652b05": {"province": "Ontario", "city": "Toronto", "term": "Winter", "name": "Sara Greenberg", "sector": "Public", "title": "Human Factors Student Analyst", "country": "Canada", "industry": "Health care", "termNumber": "4", "isWorking": "Yes", "employerUrl": "", "mapLocation": {"lat": 43.653226, "lng": -79.3831843, "name": "Toronto", "address": "Toronto, ON, Canada"}, "typeOfWork": "Human Factors usability testing", "year": "2012", "employerPrevious": "No", "jobPrevious": "No", "employer": "University Health Network", "": ""}}, "1cb17841b93bc996bb88bc016dd7bea4741e6a380a798e9b2de5ab72": {"55bd4065ca67c891c240b6626ee0ee7283afb779bac738d084bd832c": {"province": "Ontario", "city": "Markham", "term": "Winter", "titlePrevious": "No", "name": "Jan Kulinski", "sector": "", "title": "", "country": "Canada", "industry": "Enterprise", "termNumber": "1", "isWorking": "Yes", "employerUrl": "", "mapLocation": {"lat": 43.85207, "lng": -79.364598, "name": "Myplanet Digital", "address": "90 Centurian Drive, Markham, ON, Canada"}, "typeOfWork": "Software Development", "year": "2010", "employerPrevious": "No", "employer": "MyPlanet Digital"}, "c994b51170eef25f97921877489bee4cd0db339df0e4b2268ba7a8c7": {"province": "Ontario", "city": "Brampton/Waterloo", "term": "Fall", "name": "Jan Kulinski", "sector": "Private", "title": "CEO", "country": "Canada", "industry": "mobile hardware", "termNumber": "5", "isWorking": "Yes", "employerUrl": "", "mapLocation": {"lat": 43.652145, "lng": -79.724402, "name": "Waterloo Ct", "address": "Waterloo Ct, Brampton, ON L6Y, Canada"}, "typeOfWork": "Product creation", "year": "2012", "employerPrevious": "no", "jobPrevious": "no", "employer": "Studliness Corp.", "": ""}, "97e27f11f5820116c87c2ac9100f440b6938db280443b4ebda94426a": {"province": "CA", "city": "Palo Alto", "term": "Summer", "name": "Jan Kulinski", "sector": "private", "title": "Wierd iOS/Android developer", "country": "USA", "industry": "Mobile social networking", "termNumber": "6", "isWorking": "Yes", "employerUrl": "", "mapLocation": {"lat": 37.4574315, "lng": -122.1397364, "name": "Circle Dr", "address": "Circle Dr, Palo Alto, CA 94303, USA"}, "typeOfWork": "Software Dev", "year": "2013", "employerPrevious": "No", "jobPrevious": "Kinda", "employer": "Circle", "": "is it?"}, "87dbc43429f97fed6dcd91386c17326bf8edd6531e665b46a9652b05": {"province": "Ontario", "city": "Markham", "term": "Winter", "name": "Jan Kulinski", "sector": "Private", "title": "Web Dev", "country": "Canada", "industry": "Enterprise Software", "termNumber": "4", "isWorking": "Yes", "employerUrl": "", "mapLocation": {"lat": 43.85207, "lng": -79.364598, "name": "Myplanet Digital", "address": "90 Centurian Drive, Markham, ON, Canada"}, "typeOfWork": "Software Dev", "year": "2012", "employerPrevious": "No", "jobPrevious": "No", "employer": "MyPlanet Digital", "": ""}}, "1d7bcb33c62c65ab252e91d879b9ff19bde39a7fb87078df5d1d36f1": {"b0fc93f797e918f3cc741493cebf1235abb9a4e6d61de0158f793521": {"province": "Ontario", "city": "Toronto", "term": "Summer", "name": "Daxal", "sector": "Public", "title": "Middleware Infrastructure Engineering", "country": "Canada", "industry": "Finance", "termNumber": "3", "isWorking": "Yes", "employerUrl": "", "mapLocation": {"lat": 43.647277, "lng": -79.384781, "name": "CIBC Branch & ATM", "address": "100 University Avenue, Toronto, ON, Canada"}, "typeOfWork": "IT Architecture", "year": "2011", "employerPrevious": "No", "jobPrevious": "No", "employer": "CIBC"}}, "1f248ec828ecb98be34e009d5edcb8715b4c32c335d4fe6a6b3a1527": {"55bd4065ca67c891c240b6626ee0ee7283afb779bac738d084bd832c": {"province": "Ontario", "city": "Toronto", "term": "Winter", "titlePrevious": "No", "name": "Myles Tan", "sector": "Private", "title": "Quality Assurance Analyst", "country": "Canada", "industry": "Software", "termNumber": "1", "isWorking": "Yes", "employerUrl": "", "mapLocation": {"lat": 43.744409, "lng": -79.406335, "name": "NexJ Systems Inc.", "address": "Suite 700, 10 York Mills Road, Toronto, ON, Canada"}, "typeOfWork": "Quality Assurance", "year": "2010", "employerPrevious": "No", "employer": "NexJ Systems Inc."}, "c994b51170eef25f97921877489bee4cd0db339df0e4b2268ba7a8c7": {"province": "California", "city": "San Fransiscio", "term": "Fall", "name": "Myles Tan", "sector": "Private", "title": "iOS Developer", "country": "USA", "industry": "Mobile", "termNumber": "5", "isWorking": "Yes", "employerUrl": "http://www.azumio.com/argus", "mapLocation": {"lat": 37.406091, "lng": -121.976958, "name": "Horizon Communications", "address": "5201 Great America Parkway, Santa Clara, CA, United States"}, "typeOfWork": "Software", "year": "2012", "employerPrevious": "No", "jobPrevious": "No", "employer": "Azumio", "": ""}, "b0fc93f797e918f3cc741493cebf1235abb9a4e6d61de0158f793521": {"province": "Ontario", "city": "Kitchener", "term": "Summer", "name": "Myles Tan", "sector": "Private", "title": "Product Designer", "country": "Canada", "industry": "Software", "termNumber": "3", "isWorking": "Yes", "employerUrl": "", "mapLocation": {"lat": 43.451174, "lng": -80.498012, "name": "Desire2Learn Incorporated", "address": "151 Charles Street West #400 Kitchener, ON N2G 1H6 Canada, Canada"}, "typeOfWork": "Product Design", "year": "2011", "employerPrevious": "No", "jobPrevious": "No", "employer": "Desire2Learn Inc."}, "97e27f11f5820116c87c2ac9100f440b6938db280443b4ebda94426a": {"province": "Ontario", "city": "Ottawa", "term": "Summer", "name": "Myles Tan", "sector": "Private", "title": "Extreme Blue Technical Intern", "country": "Canada", "industry": "Computing", "termNumber": "6", "isWorking": "Yes", "employerUrl": "http://www-01.ibm.com/software/analytics/solutions/customer-analytics/social-media-analytics/", "mapLocation": {"lat": 45.339897, "lng": -75.691522, "name": "IBM Canada", "address": "3755 Riverside Dr, Ottawa, ON, Canada"}, "typeOfWork": "Software Dev", "year": "2013", "employerPrevious": "No", "jobPrevious": "No", "employer": "IBM", "": ""}, "87dbc43429f97fed6dcd91386c17326bf8edd6531e665b46a9652b05": {"province": "Ontario", "city": "Toronto", "term": "Winter", "name": "Myles Tan", "sector": "Public", "title": "Product Manager", "country": "Canada", "industry": "Software", "termNumber": "4", "isWorking": "Yes", "employerUrl": "", "mapLocation": {"lat": 43.744409, "lng": -79.406335, "name": "NexJ Systems Inc.", "address": "Suite 700, 10 York Mills Road, Toronto, ON, Canada"}, "typeOfWork": "Product Management", "year": "2012", "employerPrevious": "Yes", "jobPrevious": "No", "employer": "NexJ Systems Inc.", "": ""}}, "6d2932262154efa737784ad20b1b3e270690ac0102d7ae212eb08678": {"c994b51170eef25f97921877489bee4cd0db339df0e4b2268ba7a8c7": {"province": "BC", "city": "Vancouver, BC", "term": "Fall", "name": "Ram Sharma", "sector": "Private", "title": "Project Management Intern", "country": "CANADA", "industry": "Telecommunications", "termNumber": "5", "isWorking": "Yes", "employerUrl": "http://about.telus.com/index.jspa", "mapLocation": {"lat": 49.273376, "lng": -123.103834, "name": "Science World at TELUS World of Science", "address": "1455 Quebec Street, Vancouver, BC, Canada"}, "typeOfWork": "PM", "year": "2012", "employerPrevious": "No", "jobPrevious": "no", "employer": "TELUS", "": ""}, "97e27f11f5820116c87c2ac9100f440b6938db280443b4ebda94426a": {"province": "New York", "city": "New York", "term": "Summer", "name": "Ram Sharma", "sector": "Private", "title": "Trading Assistant", "country": "USA", "industry": "Finance", "termNumber": "6", "isWorking": "Yes", "employerUrl": "http://www.tdsecurities.com/tds/content/HomePageTemplate?command=doHome", "mapLocation": {"lat": 40.760846, "lng": -73.978157, "name": "TD Securities Inc", "address": "31 W 52nd St # 18, New York, NY, United States"}, "typeOfWork": "Trading hay", "year": "2013", "employerPrevious": "No", "jobPrevious": "No", "employer": "TD Securities", "": ""}, "87dbc43429f97fed6dcd91386c17326bf8edd6531e665b46a9652b05": {"province": "California", "city": "San Diego", "term": "Winter", "name": "Ram Sharma", "sector": "", "title": "Software Engineer", "country": "Canada", "industry": "", "termNumber": "4", "isWorking": "", "employerUrl": "", "mapLocation": {"lat": 32.732149, "lng": -117.200471, "name": "Air Canada", "address": "Terminal 2, Ticketing, 3225 North Harbor Drive, San Diego, CA, United States"}, "typeOfWork": "", "year": "2012", "employerPrevious": "", "jobPrevious": "", "employer": "Qualcomm", "": ""}}, "65187e2d669cb6fdf79a5cf05cd2a149b47f8507ea3e205278c567ae": {"97e27f11f5820116c87c2ac9100f440b6938db280443b4ebda94426a": {"province": "Ontario", "city": "Toronto", "term": "Summer", "name": "Noorain Noorani", "": "", "title": "Web Developer", "country": "Canada", "industry": "Telecommunications", "year": "2013", "termNumber": "3", "employerUrl": "", "classYear": "2016", "address": "1205 Saint Clair Avenue West", "employer": "Iotum", "description": ""}, "5c7a1999689356f08ea72dd40a8fc0b185461b349c407b53d305af26": {"province": "ON", "city": "Toronto", "term": "Winter", "name": "Noorain Noorani", "title": "Front End Engineer", "country": "Canada", "industry": "Internet", "year": "2014", "termNumber": "4", "employerUrl": "http://www.wattpad.com/", "classYear": "2016", "address": "4950 Yonge Street, Suite 1705 ", "employer": "Wattpad", "description": "Redesigning the web platform. "}}, "b683a0d8592d6a6bcb8719709055a851b042001b51cb44debf35bef8": {"b86e5931f575e14a898ce76690cfbce827a24b1f8eaaa5b602e29c0d": {"province": "ON", "city": "Kitchener", "term": "Fall", "name": "Hossein Mayanloo", "title": "Software Developer", "country": "Canada", "industry": "Computer Software", "address": "121 Charles Street West", "termNumber": "2", "employerUrl": "tulip.io", "classYear": "2017", "year": "2013", "employer": "Tulip Retail", "description": "Wrote PHP web apps and shieeet"}, "466b3a3a913da2d9050efc62a8f1c9ad02ebbae5c84cd2c1c7bdf914": {"province": "Ontario", "city": "Toronto", "term": "Winter", "name": "Hossein Mayanloo", "title": "QA Analyst", "country": "Canada", "industry": "Computer Software", "address": "10 York Mills Road", "termNumber": "1", "employerUrl": "www.nexj.com", "classYear": "2017", "year": "2013", "employer": "NexJ Systems", "description": "Wrote test scripts and shieeet"}}, "35fe578f08c8f6edcf229f9141e5090c0dd2968fa9878f507a8eb3a5": {"55bd4065ca67c891c240b6626ee0ee7283afb779bac738d084bd832c": {"province": "", "city": "Beijing", "term": "Winter", "titlePrevious": "No", "name": "George Cao", "sector": "Public", "title": "C++ developer/lab assistant", "country": "China.P.R", "industry": "Medical Imaging ", "termNumber": "1", "isWorking": "Yes", "employerUrl": "", "mapLocation": {"lat": 40.001244, "lng": 116.328484, "name": "Tsinghua university", "address": "\u6e05\u534e\u5927\u5b66, Haidian, Beijing, China"}, "typeOfWork": "Software Development", "year": "2010", "employerPrevious": "No", "employer": "TsingHua University"}, "b0fc93f797e918f3cc741493cebf1235abb9a4e6d61de0158f793521": {"province": "Ontario", "city": "Toronto", "term": "Summer", "name": "George Cao", "sector": "Private", "title": "Applications Developer ", "country": "Canada", "industry": "Intranet", "termNumber": "3", "isWorking": "Yes", "employerUrl": "", "mapLocation": {"lat": 43.647277, "lng": -79.384781, "name": "CIBC Branch & ATM", "address": "100 University Avenue, Toronto, ON, Canada"}, "typeOfWork": "Web development", "year": "2011", "employerPrevious": "Yes", "jobPrevious": "Yes", "employer": "CIBC"}, "87dbc43429f97fed6dcd91386c17326bf8edd6531e665b46a9652b05": {"province": "Ontario", "city": "Waterloo", "term": "Winter", "name": "George Cao", "sector": "", "title": "Medical Imaging Testing Specialist", "country": "Canada", "industry": "", "termNumber": "4", "isWorking": "", "employerUrl": "", "mapLocation": {"lat": 43.479266, "lng": -80.549909, "name": "Agfa", "address": "375 Hagey Boulevard, Waterloo, ON, Canada"}, "typeOfWork": "", "year": "2012", "employerPrevious": "No", "jobPrevious": "No", "employer": "Agfa HealthCare", "": ""}}, "cd7c71b71ed2847fdac2c34db877a35ae1cbfee34dc6706453129a46": {"5c7a1999689356f08ea72dd40a8fc0b185461b349c407b53d305af26": {"province": "AB", "city": "Calgary", "term": "Winter", "name": "Edrick Wong", "title": "Electric Engineer", "country": "Canada", "industry": "Interactive Displays", "year": "2014", "termNumber": "1", "employerUrl": "http://smarttech.com/", "classYear": "2018", "address": "3636 Research Rd NW", "employer": "SMART Tech ULC", "description": "I build SMARTboards"}}, "068bbd3046659e17ef7d11571b6a16a7e3fa6204012aab2da0bd38dc": {"87dbc43429f97fed6dcd91386c17326bf8edd6531e665b46a9652b05": {"province": "Ontario", "city": "Kitchener", "term": "Winter", "name": "Jessica", "sector": "", "title": "Business Analyst", "country": "Canada", "industry": "", "termNumber": "4", "isWorking": "Yes", "employerUrl": "", "mapLocation": {"lat": 43.476302, "lng": -80.481606, "name": "Manulife Financial", "address": "Suite 102, 630 Riverbend Dr., Kitchener, ON, Canada"}, "typeOfWork": "Business (?)", "year": "2012", "employerPrevious": "No", "jobPrevious": "No", "employer": "Manulife Financial", "": ""}}, "813829a05802629cac7df901ad4c8f42ff33e07fea9d1bfe9cd76905": {"55bd4065ca67c891c240b6626ee0ee7283afb779bac738d084bd832c": {"province": "Ontario", "city": "Toronto", "term": "Winter", "titlePrevious": "No", "name": "Aisha Sial", "sector": "Private", "title": "Quality Assurance Analyst", "country": "Canada", "industry": "Software", "termNumber": "1", "isWorking": "Yes", "employerUrl": "", "mapLocation": {"lat": 43.744409, "lng": -79.406335, "name": "NexJ Systems Inc.", "address": "Suite 700, 10 York Mills Road, Toronto, ON, Canada"}, "typeOfWork": "Quality Assurance", "year": "2010", "employerPrevious": "No", "employer": "NexJ Systems Inc."}, "b0fc93f797e918f3cc741493cebf1235abb9a4e6d61de0158f793521": {"province": "Ontario", "city": "Toronto", "term": "Summer", "name": "Aisha Sial", "sector": "Private", "title": "Software Developer", "country": "Canada", "industry": "SaaS", "termNumber": "3", "isWorking": "Yes", "employerUrl": "", "mapLocation": {"lat": 43.704106, "lng": -79.452926, "name": "2nd Site Inc", "address": "2770 Dufferin, North York, ON, Canada"}, "typeOfWork": "Python, back end development", "year": "2011", "employerPrevious": "No", "jobPrevious": "No", "employer": "FreshBooks"}, "87dbc43429f97fed6dcd91386c17326bf8edd6531e665b46a9652b05": {"province": "Ontario", "city": "Ottawa", "term": "Winter", "name": "Aisha Sial", "sector": "Public", "title": "Science and Technology Policy Analyst", "country": "Canada", "industry": "Government", "termNumber": "4", "isWorking": "Yes", "employerUrl": "", "mapLocation": {"lat": 45.427719, "lng": -75.667555, "name": "Environment Canada", "address": "335 River Rd, Gloucester, ON, Canada"}, "typeOfWork": "", "year": "2012", "employerPrevious": "No", "jobPrevious": "No", "employer": "Environment Canada", "": ""}}, "64bd1065e12eb9934e0f1e933d9182163f550ef640a02d65b517143a": {"5c7a1999689356f08ea72dd40a8fc0b185461b349c407b53d305af26": {"province": "ON", "city": "Toronto", "term": "Winter", "name": "Melanie Levy-Hara", "title": "Traffic Office", "country": "Canada", "industry": "Government Administration", "year": "2014", "termNumber": "1", "employerUrl": "http://www.mto.gov.on.ca/english/", "classYear": "2018", "address": "1201 Wilson Ave", "employer": "Ontario Ministry of Transportation", "description": ""}}, "9fb5c5cf4c7df3c150eb3f3c789ca426edbbe732bce2cc645f99f90d": {"87dbc43429f97fed6dcd91386c17326bf8edd6531e665b46a9652b05": {"province": "California", "city": "Redwood City", "term": "Winter", "name": "Stephanie Cheng", "sector": "Private", "title": "Engineering Intern", "country": "USA", "industry": "Internet privacy ", "termNumber": "4", "isWorking": "Yes", "employerUrl": "", "mapLocation": {"lat": 37.487996, "lng": -122.224319, "name": "Reputation.Com", "address": "1001 Marshall Street #2, Redwood City, CA, United States"}, "typeOfWork": "", "year": "2012", "employerPrevious": "No", "jobPrevious": "No", "employer": "Reputation.com Inc.\u00a0", "": ""}}, "53ad213586696e34a8adba4b444c6febd4c088b0c7da79b34e338453": {"b0fc93f797e918f3cc741493cebf1235abb9a4e6d61de0158f793521": {"province": "California", "city": "Palo Alto", "term": "Summer", "name": "Kai Umezawa", "sector": "Private", "title": "Software Engineer", "country": "United States", "industry": "Software", "termNumber": "3", "isWorking": "Yes", "employerUrl": "", "mapLocation": {"lat": 37.483258, "lng": -122.149623, "name": "Facebook Inc.", "address": "1601 Willow Road, Menlo Park, CA, United States"}, "typeOfWork": "Mobile/Web Engineering", "year": "2011", "employerPrevious": "No", "jobPrevious": "No", "employer": "Facebook"}, "87dbc43429f97fed6dcd91386c17326bf8edd6531e665b46a9652b05": {"province": "California", "city": "Mountain View", "term": "Winter", "name": "Kai Umezawa", "sector": "Private", "title": "Software Engineer", "country": "USA", "industry": "Software", "termNumber": "4", "isWorking": "Yes", "employerUrl": "", "mapLocation": {"lat": 37.422, "lng": -122.084058, "name": "Googleplex", "address": "1600 Amphitheatre Parkway, Mountain View, CA, United States"}, "typeOfWork": "Mobile/Web Engineering", "year": "2012", "employerPrevious": "No", "jobPrevious": "No", "employer": "Google", "": ""}}, "c61da94fcb8034cec9a581577d5d1acb7217da6f7fac4c87b39438cf": {"97e27f11f5820116c87c2ac9100f440b6938db280443b4ebda94426a": {"province": "Ontario", "city": "Kitchener", "term": "Summer", "name": "Rochelle Chong", "": "", "title": "A/V Electronics Technician", "country": "Canada", "industry": "Visual Technologies", "year": "2013", "termNumber": "3", "employerUrl": "", "classYear": "2016", "address": "809 Wellington St. N.", "employer": "Christie Digital Systems", "description": "Build A/V racks, wire up A/V systems, manage BOM (sourcing and ordering), work on A/V drawings"}, "87dbc43429f97fed6dcd91386c17326bf8edd6531e665b46a9652b05": {"province": "Ontario", "city": "Waterloo", "term": "Winter", "name": "Rochelle Chong", "title": "Controls Engineering Coop", "country": "Canada", "industry": "Automotive Industry", "year": "2012", "termNumber": "1", "employerUrl": "", "classYear": "2016", "address": "2-60 Northland Road", "employer": "CrossChasm Technologies", "description": "Made PCBs, wired up moon rovers, built vehicle data loggers"}}, "8ac1869341449801642818d713cc2ebc25214caa0007dd372efd03ea": {"87dbc43429f97fed6dcd91386c17326bf8edd6531e665b46a9652b05": {"province": "Ontario", "city": "Toronto", "term": "Winter", "name": "Ashutosh Syal", "sector": "Private", "title": "Sr. Team Lead - Exotic Dancing", "country": "Canada", "industry": "Adult Entertainment", "termNumber": "4", "isWorking": "Yes", "employerUrl": "", "mapLocation": {"lat": 43.669204, "lng": -79.38625, "name": "Brass Rail Tavern", "address": "701 Yonge, Toronto, ON, Canada"}, "typeOfWork": "Quality Control", "year": "2012", "employerPrevious": "Yes", "jobPrevious": "Yes", "employer": "Brass Rails", "": ""}}, "2ef0c0505f7ef3ed42250a4427b166b6e3a8c92202e4fffc28b07058": {"97e27f11f5820116c87c2ac9100f440b6938db280443b4ebda94426a": {"province": "Ontario", "city": "Mississauga", "term": "Summer", "name": "Prarthana Chandran", "": "", "title": "Developmental Student", "country": "Canada", "industry": "Ontario's Power Grid", "year": "2013", "termNumber": "3", "employerUrl": "", "classYear": "2016", "address": "6235 Lakeshore Road ", "employer": "IESO", "description": "Building Windows servers. Assist with the hardware and software refresh of the Control Room wallboards (20 wall mounted projectors with multiple applications running on each).  "}, "5c7a1999689356f08ea72dd40a8fc0b185461b349c407b53d305af26": {"province": "PA", "city": "Coopersburg", "term": "Winter", "name": "Prarthana Chandran", "title": "Mechanical Engineering ", "country": "USA", "industry": "Lighting", "year": "2014", "termNumber": "4", "employerUrl": "http://www.lutron.com/en-US/Pages/default.aspx", "classYear": "2016", "address": "7200 Suter Road", "employer": "Lutron Electronics Co.", "description": ""}}, "5c8010a18b25092160a7d16ebe0da69d0f9571aa9c6e2af0a396b4bb": {"55bd4065ca67c891c240b6626ee0ee7283afb779bac738d084bd832c": {"province": "Ontario", "city": "Markham", "term": "Winter", "titlePrevious": "No", "name": "Scott Neil", "sector": "Public", "title": "Project Control Officer", "country": "Canada", "industry": "IT Consulting", "termNumber": "1", "isWorking": "Yes", "employerUrl": "", "mapLocation": {"lat": 43.839823, "lng": -79.383525, "name": "CGI", "address": "125 Commerce Valley Dr W, Thornhill, ON, Canada"}, "typeOfWork": "Project Management", "year": "2010", "employerPrevious": "No", "employer": "CGI Group Inc."}, "c994b51170eef25f97921877489bee4cd0db339df0e4b2268ba7a8c7": {"province": "Ontario", "city": "Toronto", "term": "Fall", "name": "Scott Neil", "sector": "Private", "title": "Investment Analyst/Assistant", "country": "Canada", "industry": "Finance", "termNumber": "5", "isWorking": "Yes", "employerUrl": "http://www.periscopecap.com/", "mapLocation": {"lat": 43.662681, "lng": -79.376221, "name": "Carson Dunlop Home Inspections", "address": "120 Carlton Street #407, Toronto, ON, Canada"}, "typeOfWork": "Investment Analysis and Technical Lead", "year": "2012", "employerPrevious": "No", "jobPrevious": "No", "employer": "Periscope Captial", "": ""}, "b0fc93f797e918f3cc741493cebf1235abb9a4e6d61de0158f793521": {"province": "Ontario", "city": "Oakville", "term": "Summer", "name": "Scott Neil", "sector": "Private", "title": "Software Developer", "country": "Canada", "industry": "Software", "termNumber": "3", "isWorking": "YEs", "employerUrl": "", "mapLocation": {"lat": 43.504078, "lng": -79.67121, "name": "Skura Corporation", "address": "2275 Upper Middle Road East #200, Oakville, ON, Canada"}, "typeOfWork": "Software Development", "year": "2011", "employerPrevious": "No", "jobPrevious": "No", "employer": "Skura Corp"}, "97e27f11f5820116c87c2ac9100f440b6938db280443b4ebda94426a": {"province": "California", "city": "Menlo Park", "term": "Summer", "name": "Scott Neil", "sector": "Private", "title": "Product Analytics", "country": "USA", "industry": "Social Networking", "termNumber": "6", "isWorking": "Yes", "employerUrl": "https://www.facebook.com/facebook", "mapLocation": {"lat": 37.483258, "lng": -122.149623, "name": "Facebook Inc.", "address": "1601 Willow Road, Menlo Park, CA, United States"}, "typeOfWork": "Data", "year": "2013", "employerPrevious": "No", "jobPrevious": "No", "employer": "Facebook", "": ""}, "87dbc43429f97fed6dcd91386c17326bf8edd6531e665b46a9652b05": {"province": "Ontario", "city": "Toronto", "term": "Winter", "name": "Scott Neil", "sector": "Public", "title": "FI/MM Trading Analyst", "country": "Canada", "industry": "Finance", "termNumber": "4", "isWorking": "Yes", "employerUrl": "", "mapLocation": {"lat": 43.819916, "lng": -79.114771, "name": "BMO Bank of Montreal", "address": "726 Kingston Road, Pickering, ON, Canada"}, "typeOfWork": "Trading Analysis", "year": "2012", "employerPrevious": "No", "jobPrevious": "No", "employer": "BMO Capital Markets", "": ""}}, "2c8c32d8063423a68e95c2f984766d02a133e4e646f7ee0615798a5a": {"5c7a1999689356f08ea72dd40a8fc0b185461b349c407b53d305af26": {"province": "ON", "city": "Toronto", "term": "Winter", "name": "Ziying Zhang", "title": "Email Production Coordinator", "country": "Canada", "industry": "Retail", "year": "2014", "termNumber": "1", "employerUrl": "http://www.chapters.indigo.ca/home/", "classYear": "2018", "address": "468 King st. W", "employer": "Indigo Books & Music Inc.", "description": ""}}, "de232b9e3bb0be89cbcdb42c7fed6e98ce96802b1dd491765b2ec2e2": {"5c7a1999689356f08ea72dd40a8fc0b185461b349c407b53d305af26": {"province": "ON", "city": "Toronto", "term": "Winter", "name": "Ian Waudby-Smith", "title": "Software Developer", "country": "Canada", "industry": "Software ", "year": "2014", "termNumber": "1", "employerUrl": "http://vfmleonardo.com/", "classYear": "2018", "address": "111 Peter Street", "employer": "VFM Leonardo", "description": ""}}, "898484d667e29b0107647f731b747d1e130fc516a2b84fad39e69aad": {"271fca6f897eba601074c62b07eabe30b0a837dfcd45536a1ad55dd0": {"province": "ON", "city": "Toronto", "term": "Winter", "titlePrevious": "N", "name": "Samantha Scott", "sector": "Public", "title": "Compliance and Quality Analyst", "country": "Canada", "industry": "Utilities", "year": "2011", "termNumber": "1", "isWorking": "Y", "employerUrl": "http://www.torontohydro.com/sites/electricsystem/Pages/foryourhome.aspx", "classYear": "2015", "mapLocation": {"lat": 43.64637, "lng": -79.374957, "name": "Toronto Hydro Corporation", "address": "ON, Canada"}, "address": "", "employerPrevious": "N", "employer": "Toronto Hydro", "description": "Conducted root cause analyses and worked with engineers and supply chain specialists to resolve problems and establish preventative actions."}, "b86e5931f575e14a898ce76690cfbce827a24b1f8eaaa5b602e29c0d": {"province": "New York", "city": "New York", "term": "Fall", "titlePrevious": "N", "name": "Samantha Scott", "sector": "Public", "title": "Product Development Manager", "country": "USA", "industry": "Tech", "year": "2013", "termNumber": "5", "isWorking": "Y", "employerUrl": "http://www.appnexus.com/", "classYear": "2015", "mapLocation": {"lat": 40.741973, "lng": -73.990861, "name": "AppNexus, Inc.", "address": "28 West 23rd Street, New York, NY, United States"}, "address": "", "employerPrevious": "N", "employer": "AppNexus", "description": ""}, "2bbb78e381ee07e7f8422f2cf90f096602f38e6a73cec9598daf4704": {"province": "ON", "city": "Toronto", "term": "Summer", "titlePrevious": "N", "name": "Samantha Scott", "sector": "Public", "title": "Framework Developer", "country": "Canada", "industry": "Tech", "year": "2012", "termNumber": "3", "isWorking": "Y", "employerUrl": "http://www.nexj.com/", "classYear": "2015", "mapLocation": {"lat": 43.744409, "lng": -79.406335, "name": "NexJ Systems Inc.", "address": "Suite 700, 10 York Mills Road, Toronto, ON, Canada"}, "address": "", "employerPrevious": "N", "employer": "NexJ Systems", "description": "Developed creative solutions to a range of issues using Java, JavaScript and Scheme."}, "466b3a3a913da2d9050efc62a8f1c9ad02ebbae5c84cd2c1c7bdf914": {"province": "ON", "city": "Toronto", "term": "Winter", "titlePrevious": "N", "name": "Samantha Scott", "sector": "Public", "title": "Product Manager", "country": "Canada", "industry": "Tech", "year": "2013", "termNumber": "4", "isWorking": "Y", "employerUrl": "http://www.nexj.com", "classYear": "2015", "mapLocation": {"lat": 43.744409, "lng": -79.406335, "name": "NexJ Systems Inc.", "address": "Suite 700, 10 York Mills Road, Toronto, ON, Canada"}, "address": "", "employerPrevious": "Y", "employer": "NexJ Systems", "description": "Product owner for an 11 person development team.  Created, managed, and updated the product\u2019s vision and functional designs."}, "0679b25b14f91f4bb1aa1249d91cfb1450f1466491f90fc8a1c86fb2": {"province": "ON", "city": "Toronto", "term": "Fall", "titlePrevious": "Y", "name": "Samantha Scott", "sector": "Public", "title": "Business Analyst", "country": "Canada", "industry": "Banking", "year": "2011", "termNumber": "2", "isWorking": "Y", "employerUrl": "http://www.tdsecurities.com/tds/content/HomePageTemplate?command=doHome", "classYear": "2015", "mapLocation": {"lat": 45.523446, "lng": -73.692516, "name": "TD", "address": "1825 Avenue O'brien, Saint-laurent, QC, Canada"}, "address": "", "employerPrevious": "N", "employer": "TD Securities", "description": "Managed global access to major bank applications, including Global Instruments (deposits, loans, memos), Daily Funding, and Loan Lifecycle Tracking."}}, "6e228a1a62f1a87b88a9f2d6f4d650f573a0928f769cb42e8bfc7add": {"87dbc43429f97fed6dcd91386c17326bf8edd6531e665b46a9652b05": {"province": "", "city": "Toulouse", "term": "Winter", "name": "Faizan Haque", "sector": "", "title": "Research Assistant", "country": "France", "industry": "Aviation", "termNumber": "4", "isWorking": "Yes", "employerUrl": "", "mapLocation": {"lat": 43.564505, "lng": 1.482496, "name": "\u00c9cole nationale de l'aviation civile", "address": "7 Avenue \u00c9douard Belin, Toulouse Cedex 04, France"}, "typeOfWork": "Research", "year": "2012", "employerPrevious": "No", "jobPrevious": "No", "employer": "\u00c9cole Nationale de l'Aviation Civile", "": ""}}, "e6fed211a18dbc99fd7dca9b8638287fcf394f48c332c6f22e20608e": {"271fca6f897eba601074c62b07eabe30b0a837dfcd45536a1ad55dd0": {"province": "ON", "city": "Downtown Toronto", "term": "Winter", "titlePrevious": "N", "name": "Nikhil Gaekwad", "sector": "Public", "title": "Programmer Analyst", "country": "Canada", "industry": "IT Finance", "year": "2011", "termNumber": "1", "isWorking": "Y", "employerUrl": "http://www.scotiabank.com/ca/en/", "classYear": "2015", "mapLocation": {"lat": 43.649073, "lng": -79.379556, "name": "Scotiabank", "address": "40 King Street West, Toronto, ON, Canada"}, "address": "", "employerPrevious": "N", "employer": "Scotiabank", "description": "Developed web and stand-alone applications for stocks, reports, and fee calculations using Java, HTML, Ant, AJAX, Structs, etc."}}, "bc0575f9510da597f81407300032cda7aef07eddc46b12404c72a330": {"5c7a1999689356f08ea72dd40a8fc0b185461b349c407b53d305af26": {"province": "ON", "city": "Ottawa", "term": "Winter", "name": "Sophia Castellarin", "title": "QA Analyst", "country": "Canada", "industry": "Computer Software", "year": "2014", "termNumber": "1", "employerUrl": "http://www.360pi.com/", "classYear": "2018", "address": "1101 Prince of Wales Drive ", "employer": "360pi", "description": ""}}, "6724c99d5e15c7f28d7d329429c072b2693126fbd67d4d17e9934d11": {"55bd4065ca67c891c240b6626ee0ee7283afb779bac738d084bd832c": {"province": "Ontario", "city": "Toronto", "term": "Winter", "titlePrevious": "Yes (worked Fall 09/Winter 10 here)", "name": "Anna Mach", "sector": "Private", "title": "Quality Assurance Analyst", "country": "Canada", "industry": "Software", "termNumber": "1", "isWorking": "Yes", "employerUrl": "", "mapLocation": {"lat": 43.744409, "lng": -79.406335, "name": "NexJ Systems Inc.", "address": "Suite 700, 10 York Mills Road, Toronto, ON, Canada"}, "typeOfWork": "Quality Assurance", "year": "2010", "employerPrevious": "Yes (see previous)", "employer": "NexJ Systems Inc."}, "b0fc93f797e918f3cc741493cebf1235abb9a4e6d61de0158f793521": {"province": "Ontario", "city": "Toronto", "term": "Summer", "name": "Anna Mach", "sector": "Public (as of May 2011)", "title": "Application Developer (Finance)", "country": "Canada", "industry": "Software - Enterprise CRM", "termNumber": "3", "isWorking": "Yes", "employerUrl": "", "mapLocation": {"lat": 43.744409, "lng": -79.406335, "name": "NexJ Systems Inc.", "address": "Suite 700, 10 York Mills Road, Toronto, ON, Canada"}, "typeOfWork": "Software Development", "year": "2011", "employerPrevious": "Yes", "jobPrevious": "No", "employer": "NexJ Systems Inc."}, "87dbc43429f97fed6dcd91386c17326bf8edd6531e665b46a9652b05": {"province": "Ontario", "city": "Waterloo", "term": "Winter", "name": "Anna Mach", "sector": "Private", "title": "Software Quality Engineer", "country": "Canada", "industry": "Software", "termNumber": "4", "isWorking": "Yes", "employerUrl": "", "mapLocation": {"lat": 43.506332, "lng": -80.546962, "name": "Kaleidescape Canada Inc", "address": "611 Kumpf Dr, Kitchener, ON, Canada"}, "typeOfWork": "Quality Assurance/Software Development?", "year": "2012", "employerPrevious": "No", "jobPrevious": "No", "employer": "Kaleidescape", "": ""}, "b86e5931f575e14a898ce76690cfbce827a24b1f8eaaa5b602e29c0d": {"province": "Ontario", "city": "Waterloo", "term": "Fall", "titlePrevious": "N", "name": "Anna Mach", "sector": "Private", "title": "Software Engineer", "country": "Canada", "industry": "Tech", "year": "2013", "termNumber": "5", "isWorking": "Y", "employerUrl": "http://www.ncr.com/", "classYear": "2015", "address": "50 Northland Road", "employerPrevious": "N", "employer": "NCR", "description": "I'm in your ATMs, reading your cheques"}}, "8c8de2d0eb3055a7ceb67c18a75bf50cdf8e0a97a846e9d08f617954": {"55bd4065ca67c891c240b6626ee0ee7283afb779bac738d084bd832c": {"province": "Ontario", "city": "Toronto", "term": "Winter", "titlePrevious": "No", "name": "Eric Kyungwoo Sung", "sector": "Private", "title": "Technical Project Assistant", "country": "Canada", "industry": "Internet Consulting", "termNumber": "1", "isWorking": "Yes", "employerUrl": "", "mapLocation": {"lat": 43.647615, "lng": -79.391826, "name": "imason inc.", "address": "312 Adelaide Street West #801, Toronto, ON, Canada"}, "typeOfWork": "Web Development", "year": "2010", "employerPrevious": "No", "employer": "Imason inc."}, "c994b51170eef25f97921877489bee4cd0db339df0e4b2268ba7a8c7": {"province": "California", "city": "Sunnyvale", "term": "Fall", "name": "Eric Kyungwoo Sung", "sector": "", "title": "IC Design Engineering", "country": "USA", "industry": "Semiconducter", "termNumber": "5", "isWorking": "Yes", "employerUrl": "http://www.broadcom.com/", "mapLocation": {"lat": 37.377139, "lng": -122.033667, "name": "Broadcom Corporation", "address": "190 Mathilda Place, Sunnyvale, CA, United States"}, "typeOfWork": "Electrical Eng", "year": "2012", "employerPrevious": "Yes", "jobPrevious": "No", "employer": "Broadcom", "": ""}, "b0fc93f797e918f3cc741493cebf1235abb9a4e6d61de0158f793521": {"province": "Ontario", "city": "Markham", "term": "Summer", "name": "Eric Kyungwoo Sung", "sector": "Private", "title": "Hardware Engineer", "country": "Canada", "industry": "Hardware", "termNumber": "3", "isWorking": "Yes", "employerUrl": "", "mapLocation": {"lat": 43.83888, "lng": -79.379713, "name": "AMD", "address": "1 Commerce Valley Drive East, Markham, ON, Canada"}, "typeOfWork": "Hardware Qualification", "year": "2011", "employerPrevious": "No", "jobPrevious": "No", "employer": "AMD"}, "87dbc43429f97fed6dcd91386c17326bf8edd6531e665b46a9652b05": {"province": "California", "city": "Sunnyvale", "term": "Winter", "name": "Eric Kyungwoo Sung", "sector": "Private", "title": "Mobile Wi-Fi Engineer", "country": "USA", "industry": "Hardware", "termNumber": "4", "isWorking": "Yes", "employerUrl": "", "mapLocation": {"lat": 37.377139, "lng": -122.033667, "name": "Broadcom Corporation", "address": "190 Mathilda Place, Sunnyvale, CA, United States"}, "typeOfWork": "Integrated Circuit Design", "year": "2012", "employerPrevious": "No", "jobPrevious": "No", "employer": "Broadcom", "": ""}}, "ac6fef09e93e79222b960743eca50af4d2c133d42cffe98a9e05626c": {"c994b51170eef25f97921877489bee4cd0db339df0e4b2268ba7a8c7": {"province": "Ontario", "city": "Pickering", "term": "Fall", "name": "Aftad Zaman", "sector": "Private", "title": "Systems Engineering", "country": "Canada", "industry": "Manufacturing", "termNumber": "5", "isWorking": "Yes", "employerUrl": "http://www.jacobs.com/products.aspx?id=6754", "mapLocation": {"lat": 43.827608, "lng": -79.051803, "name": "Aker Solutions Canada Inc", "address": "2001 Clements, Pickering, ON, Canada"}, "typeOfWork": "ERP development", "year": "2012", "employerPrevious": "no", "jobPrevious": "no", "employer": "Chemetics Inc. (a Jacobs Company)", "": ""}}, "18318b493061ec9b3588ed9b8c1abc741aae4d579d0451dbc8d33b19": {"97e27f11f5820116c87c2ac9100f440b6938db280443b4ebda94426a": {"province": "Ontario", "city": "Toronto", "term": "Summer", "name": "Kishan Dedakia", "": "No", "title": "Water Data Developer", "country": "Canada", "industry": "IT", "year": "2013", "termNumber": "3", "employerUrl": "", "classYear": "2016", "address": "720 Bathurst St", "employer": "WatrHub", "description": "Writing web scrapers + scripts to aggregate + structure water facility data"}, "5c7a1999689356f08ea72dd40a8fc0b185461b349c407b53d305af26": {"province": "ON", "city": "Kanata", "term": "Winter", "name": "Kishan Dedakia", "title": "Project Management", "country": "Canada", "industry": "Telecommunications & Software", "year": "2014", "termNumber": "4", "employerUrl": "http://www.jsico.com/", "classYear": "2016", "address": "", "employer": "JSI Telecommunications", "description": "Assisting with the migration from old technology and workflows to new technology"}}, "782b22c841e56faadf2134327ae3a529173ff94b8f03d97c3a9d69c9": {"c994b51170eef25f97921877489bee4cd0db339df0e4b2268ba7a8c7": {"province": "Ontatio", "city": "Toronto", "term": "Fall", "name": "Vithuran B", "sector": "Private", "title": "Software Developer", "country": "Canada", "industry": "IPTV", "termNumber": "5", "isWorking": "Yes", "employerUrl": "http://www.cisco.com/web/CA/about/index.html", "mapLocation": {"lat": 51.054181, "lng": -114.051856, "name": "Canada Satellite", "address": "215 4 Street Northeast, Calgary, AB, Canada"}, "typeOfWork": "Dev", "year": "2012", "employerPrevious": "yes", "jobPrevious": "yes", "employer": "Cisco Systems", "": ""}}, "6573e75220f796895bafd1f7dfe4d3f25a85f026e55fb3f8b48046f2": {"97e27f11f5820116c87c2ac9100f440b6938db280443b4ebda94426a": {"province": "California", "city": "Palo Alto", "term": "Summer", "name": "Stephane Cheng", "sector": "Private", "title": "Software Engineer Intern", "country": "USA", "industry": "Software", "termNumber": "6", "isWorking": "Yes", "employerUrl": "http://elacarte.com/", "mapLocation": {"lat": 37.831746, "lng": -122.262397, "name": "Internet \u00e0 la Carte", "address": "472 43rd Street, Oakland, CA, United States"}, "typeOfWork": "Software", "year": "2013", "employerPrevious": "No", "jobPrevious": "No", "employer": "E la Carte", "": ""}}, "46501517bb082de9e1f2d97e8018ae639f270466ac5c6963e28e48bb": {"c994b51170eef25f97921877489bee4cd0db339df0e4b2268ba7a8c7": {"province": "Ontario", "city": "Waterloo", "term": "Fall", "name": "Edward Li", "sector": "Private", "title": "Research Assistant", "country": "Canada", "industry": "Visual Image Processing ", "termNumber": "5", "isWorking": "Yes", "employerUrl": "http://vip.uwaterloo.ca/", "mapLocation": {"lat": 43.440572, "lng": -79.707617, "name": "VIP Dental Laboratory", "address": "461 North Service W, Oakville, ON, Canada"}, "typeOfWork": "Image Processing and Pattern Recognition", "year": "2012", "employerPrevious": "no", "jobPrevious": "no", "employer": "VIP Lab", "": ""}, "87dbc43429f97fed6dcd91386c17326bf8edd6531e665b46a9652b05": {"province": "Ontario", "city": "Waterloo", "term": "Winter", "name": "Edward Li", "sector": "", "title": "BI Developer", "country": "Canada", "industry": "", "termNumber": "4", "isWorking": "", "employerUrl": "", "mapLocation": {"lat": 43.475988, "lng": -80.552204, "name": "OpenText Corporation", "address": "275 South Service Rd, Waterloo, ON, Canada"}, "typeOfWork": "", "year": "2012", "employerPrevious": "", "jobPrevious": "", "employer": "Open Text", "": ""}}, "e1821afed71366d7eeae2a16751ce1f4dec6f2ede8fe3f0bc0eb0e19": {"87dbc43429f97fed6dcd91386c17326bf8edd6531e665b46a9652b05": {"province": "Ontario", "city": "Markham", "term": "Winter", "name": "Justin Lau", "sector": "Private", "title": "Testing Tools & QA Process Analyst", "country": "Canada", "industry": "Information Technology", "termNumber": "4", "isWorking": "", "employerUrl": "", "mapLocation": {"lat": 43.81896, "lng": -79.52742, "name": "Cgi Group Inc", "address": "51-B Caldari Rd, Concord, ON, Canada"}, "typeOfWork": "Quality Assurance/ Testing", "year": "2012", "employerPrevious": "No", "jobPrevious": "No", "employer": "CGI Group", "": ""}}, "1ea67ab829bf1c3b8df556c3cf5fb8ba7f2f2aad09358507974ed720": {"87dbc43429f97fed6dcd91386c17326bf8edd6531e665b46a9652b05": {"province": "Ontario", "city": "Toronto", "term": "Winter", "name": "Nestor Abarca", "title": "Quality Assurance Coop", "country": "Canada", "industry": "Marketing and Advertising", "year": "2012", "termNumber": "1", "employerUrl": "", "classYear": "2016", "address": "355 King St. W", "employer": "OLSON Canada", "description": "QA, Data Analysis, Web Dev"}}, "5e97cc1f888fbfa26d2207642a7d1ffd5fabc0f02222c233ad0205d0": {"97e27f11f5820116c87c2ac9100f440b6938db280443b4ebda94426a": {"province": "California", "city": "Mountain View", "term": "Summer", "name": "Chi Wai Kenneth Ng", "sector": "Public", "title": "Software Engineering Intern", "country": "USA", "industry": "Internet", "termNumber": "6", "isWorking": "Yes", "employerUrl": "http://www.google.ca", "mapLocation": {"lat": 37.422, "lng": -122.084058, "name": "Googleplex", "address": "1600 Amphitheatre Parkway, Mountain View, CA, United States"}, "typeOfWork": "Software", "year": "2013", "employerPrevious": "No", "jobPrevious": "No", "employer": "Google", "": ""}, "87dbc43429f97fed6dcd91386c17326bf8edd6531e665b46a9652b05": {"province": "California", "city": "Mountain View", "term": "Winter", "name": "Chi Wai Kenneth Ng", "sector": "", "title": "Software Engineer", "country": "USA", "industry": "", "termNumber": "4", "isWorking": "", "employerUrl": "", "mapLocation": {"lat": 37.386567, "lng": -122.084153, "name": "Ooyala Inc", "address": "800 West El Camino Real #350, Mountain View, CA, United States"}, "typeOfWork": "", "year": "2012", "employerPrevious": "", "jobPrevious": "", "employer": "Ooyala", "": ""}}, "1b607ec2f581961c06eb818e4b0a699a04fcd405d6b6ad0d33ae015b": {"c994b51170eef25f97921877489bee4cd0db339df0e4b2268ba7a8c7": {"province": "Ontario", "city": "Ottawa", "term": "Fall", "name": "Sadie Hewgill", "sector": "", "title": "", "country": "Canada", "industry": "", "termNumber": "5", "isWorking": "Yes", "employerUrl": "http://www.halsall.com/", "mapLocation": {"lat": 45.414123, "lng": -75.688561, "name": "Halsall Associates", "address": "210 Gladstone Ave 4th Flr Ottawa, ON K2P 0Y6, Canada"}, "typeOfWork": "building design", "year": "2012", "employerPrevious": "no", "jobPrevious": "no", "employer": "Halsall", "": ""}, "87dbc43429f97fed6dcd91386c17326bf8edd6531e665b46a9652b05": {"province": "", "city": "Khartoum", "term": "Winter", "name": "Sadie Hewgill", "sector": "", "title": "Appropriate Technology Designer", "country": "Sudan", "industry": "", "termNumber": "4", "isWorking": "Sort of", "employerUrl": "", "mapLocation": {"lat": 15.575, "lng": 32.7122222, "name": "Qal`at Duggc", "address": "Qal`at Duggc\u060c Sudan"}, "typeOfWork": "R+D for clean water and sustainable energy projects", "year": "2012", "employerPrevious": "No", "jobPrevious": "No", "employer": "NileCAT", "": "yes"}}, "704a22c2244e76e680eb2ab5a055b53ef49adcf9e8eb3d5ee5a71f97": {"55bd4065ca67c891c240b6626ee0ee7283afb779bac738d084bd832c": {"province": "Ontario", "city": "Toronto", "term": "Winter", "titlePrevious": "No", "name": "Nahiyan Malik", "sector": "Private", "title": "Web and Mobile Developer", "country": "Canada", "industry": "Mobile Finance", "termNumber": "1", "isWorking": "Yes", "employerUrl": "", "mapLocation": {"lat": 43.512131, "lng": -80.254132, "name": "Extreme PC", "address": "50 Dovercliffe, Guelph, ON, Canada"}, "typeOfWork": "Development", "year": "2010", "employerPrevious": "No", "employer": "Xtreme Mobility"}, "c994b51170eef25f97921877489bee4cd0db339df0e4b2268ba7a8c7": {"province": "Ontario", "city": "Toronto", "term": "Fall", "name": "Nahiyan Malik", "sector": "Private", "title": "Software Developer", "country": "Canada", "industry": "Biomedical", "termNumber": "5", "isWorking": "Yes", "employerUrl": "http://sunnybrook.ca/research/", "mapLocation": {"lat": 43.721747, "lng": -79.376464, "name": "Sunnybrook Health Sciences Centre", "address": "2075 Bayview Avenue, Toronto, ON, Canada"}, "typeOfWork": "Medical Imaging (fMRI)", "year": "2012", "employerPrevious": "No", "jobPrevious": "No", "employer": "Sunnybrook Research Institute", "": ""}, "b0fc93f797e918f3cc741493cebf1235abb9a4e6d61de0158f793521": {"province": "Ontario", "city": "Toronto", "term": "Summer", "name": "Nahiyan Malik", "sector": "Private", "title": "Software Engineering Intern", "country": "Canada", "industry": "Communications", "termNumber": "3", "isWorking": "Yes", "employerUrl": "", "mapLocation": {"lat": 43.647208, "lng": -79.379381, "name": "Cisco Systems Inc", "address": "181 Bay, Toronto, ON, Canada"}, "typeOfWork": "Software Engineering", "year": "2011", "employerPrevious": "No", "jobPrevious": "No", "employer": "Cisco Systems"}, "97e27f11f5820116c87c2ac9100f440b6938db280443b4ebda94426a": {"province": "Ontario", "city": "Toronto", "term": "Summer", "name": "Nahiyan Malik", "sector": "Private", "title": "Bioinformatics Intern", "country": "Canada", "industry": "Biomedical", "termNumber": "6", "isWorking": "Yes", "employerUrl": "http://oicr.on.ca/", "mapLocation": {"lat": 43.659676, "lng": -79.388701, "name": "Ontario Institute for Cancer Research", "address": "101 College, Toronto, ON, Canada"}, "typeOfWork": "Bioinformatics", "year": "2013", "employerPrevious": "No", "jobPrevious": "No", "employer": "Ontario Institute for Cancer Research", "": ""}, "87dbc43429f97fed6dcd91386c17326bf8edd6531e665b46a9652b05": {"province": "Ontario", "city": "Mississauga", "term": "Winter", "name": "Nahiyan Malik", "sector": "", "title": "R&D Engineering", "country": "Canada", "industry": "", "termNumber": "4", "isWorking": "", "employerUrl": "", "mapLocation": {"lat": 43.661036, "lng": -79.60013, "name": "Baylis Medical Co Inc", "address": "2645 Matheson Bl E, Cooksville, ON, Canada"}, "typeOfWork": "", "year": "2012", "employerPrevious": "", "jobPrevious": "", "employer": "Baylis Medical", "": ""}}, "6ad3bb39db175eae324c4d96d137b8cba02a3adcff03407cc8aceaff": {"c994b51170eef25f97921877489bee4cd0db339df0e4b2268ba7a8c7": {"province": "British Columbia", "city": "Burnaby", "term": "Fall", "name": "Ruchir Doshi", "sector": "Private", "title": "Business Systems Analyst", "country": "Canada", "industry": "Telecommunications", "termNumber": "5", "isWorking": "Yes", "employerUrl": "http://about.telus.com/index.jspa", "mapLocation": {"lat": 49.225551, "lng": -122.997905, "name": "Telus", "address": "4700 Kingsway, Burnaby, BC, Canada"}, "typeOfWork": "", "year": "2012", "employerPrevious": "No", "jobPrevious": "No", "employer": "Telus", "": ""}, "87dbc43429f97fed6dcd91386c17326bf8edd6531e665b46a9652b05": {"province": "Ontario", "city": "Toronto", "term": "Winter", "name": "Ruchir Doshi", "sector": "Private", "title": "MM Software Developer", "country": "Canada", "industry": "Investment Banking", "termNumber": "4", "isWorking": "", "employerUrl": "", "mapLocation": {"lat": 43.089171, "lng": -79.059839, "name": "Bank of America", "address": "418 3rd Street, Niagara Falls, NY, United States"}, "typeOfWork": "Software Dev", "year": "2012", "employerPrevious": "No", "jobPrevious": "Probably not", "employer": "Bank of America Merrill Lynch", "": ""}}, "d15d555b57ed61a26a42bda18b938c6564d23c508711105106582c54": {"97e27f11f5820116c87c2ac9100f440b6938db280443b4ebda94426a": {"province": "Ontario", "city": "Mississauga", "term": "Summer", "name": "Harvey Tang ", "": "No", "title": "Engineering Assistant", "country": "Canada", "industry": "Acoustics and Vibration", "year": "2013", "termNumber": "3", "employerUrl": "", "classYear": "2016", "address": "366 Revus Avenue, Unit 23", "employer": "Swallow Acoustic Consultants Ltd.", "description": "AutoCAD drawings, calculations, wrote report on deficiencies between as-built and design"}}, "7d78e4adaa22746f4b181b27b78bebe73fd38f47029dd9e14eb191d3": {"97e27f11f5820116c87c2ac9100f440b6938db280443b4ebda94426a": {"province": "California", "city": "Menlo Park", "term": "Summer", "name": "Alexander Huras", "sector": "Private", "title": "Product Analytics", "country": "USA", "industry": "Social", "termNumber": "6", "isWorking": "Yes", "employerUrl": "https://www.facebook.com/facebook", "mapLocation": {"lat": 37.483258, "lng": -122.149623, "name": "Facebook Inc.", "address": "1601 Willow Road, Menlo Park, CA, United States"}, "typeOfWork": "Analyst-y", "year": "2013", "employerPrevious": "No", "jobPrevious": "No", "employer": "Facebook", "": ""}}, "529d188cc50388273b7f219788430e3f54eedabed820d2fb7c8bf8e9": {"5c7a1999689356f08ea72dd40a8fc0b185461b349c407b53d305af26": {"province": "ON", "city": "London", "term": "Winter", "name": "Jared Baribeau", "title": "Electromechanical Engineer", "country": "Canada", "industry": "Industrial Electrical Engineering", "year": "2014", "termNumber": "1", "employerUrl": "http://www.steinindustriesinc.com/", "classYear": "2018", "address": "19 Artisans Crescent", "employer": "Stein Industries Inc.", "description": ""}}, "000b75a90dd6e7d047ed5980ecd48faa308b9973d067a085b44a649d": {"5c7a1999689356f08ea72dd40a8fc0b185461b349c407b53d305af26": {"province": "ON", "city": "Toronto", "term": "Winter", "name": "Joshua Ching", "title": "Themer and Web Developer", "country": "Canada", "industry": "Nonprofit", "year": "2014", "termNumber": "1", "employerUrl": "http://oicr.on.ca/", "classYear": "2018", "address": "MaRS Centre, South Tower, 101 College Street, Suite 800", "employer": "Ontario Institute for Cancer Research", "description": ""}}, "be995abfe5d0f78e953a7a41b648c0a8705fd0fb0d113a3fb1519512": {"466b3a3a913da2d9050efc62a8f1c9ad02ebbae5c84cd2c1c7bdf914": {"province": "ON", "city": "Toronto", "term": "Winter", "titlePrevious": "N", "name": "Robert Bon", "sector": "Private", "title": "Building Energy Analyst", "country": "Canada", "industry": "Oil/Energy/Solar/Greentech", "year": "2013", "termNumber": "4", "isWorking": "Y", "employerUrl": "http://www.energyprofiles.com/", "classYear": "2015", "mapLocation": {"lat": 43.649048, "lng": -79.535856, "name": "Energy Profiles Ltd", "address": "153 Royalavon, Etobicoke, ON, Canada"}, "address": "", "employerPrevious": "N", "employer": "Energy Profiles Limited", "description": "Conducted large scale energy assessments in commercial office buildings to drive down utility spenditure. Performed measurement calculations to verify incentive application"}}, "950135598e61252cf77607d1e6e4e7d50db70664b11b7b42524922c9": {"87dbc43429f97fed6dcd91386c17326bf8edd6531e665b46a9652b05": {"province": "Ontario", "city": "Kanata", "term": "Winter", "name": "Audrey Chung", "sector": "Private", "title": "Systems Engineer", "country": "Canada", "industry": "Wireless Networking", "termNumber": "4", "isWorking": "Yes", "employerUrl": "", "mapLocation": {"lat": 45.348442, "lng": -75.924263, "name": "Belair Networks", "address": "603 March Rd, Kanata, ON, Canada"}, "typeOfWork": "Research and Development", "year": "2012", "employerPrevious": "Yes", "jobPrevious": "Yes", "employer": "BelAir Networks", "": ""}}, "5f5d7fa1691f5c2c5e2a37b6933ca485061f7f8f12c24a79dd9862c6": {"271fca6f897eba601074c62b07eabe30b0a837dfcd45536a1ad55dd0": {"province": "ON", "city": "Brampton", "term": "Winter", "titlePrevious": "Y", "name": "Vanessa Guido", "sector": "Public", "title": "R&D Engineer", "country": "Canada", "industry": "Automotive Manufacturing ", "year": "2011", "termNumber": "1", "isWorking": "Y", "employerUrl": "", "classYear": "2015", "mapLocation": {"lat": 43.6833333, "lng": -79.7666667, "name": "Brampton", "address": "Brampton, ON, Canada"}, "address": "", "employerPrevious": "Y", "employer": "Promatek Research Centre (Magna International)", "description": "Manufacturing research and development for body in white aspects of new vechicles. Helped design process to create full production runs of casting parts. "}}, "15bf3d6282508c6404f5671f867eb419f16de4a7130edbd1b77d6f7d": {"55bd4065ca67c891c240b6626ee0ee7283afb779bac738d084bd832c": {"province": "Ontario", "city": "Waterloo", "term": "Winter", "titlePrevious": "No", "name": "Karina Sils", "sector": "Private", "title": "Software Developer", "country": "Canada", "industry": "Healthcare", "termNumber": "1", "isWorking": "Yes", "employerUrl": "", "mapLocation": {"lat": 43.479266, "lng": -80.549909, "name": "Agfa", "address": "375 Hagey Boulevard, Waterloo, ON, Canada"}, "typeOfWork": "Database Design/ Software Dev", "year": "2010", "employerPrevious": "No", "employer": "AGFA Healthcare"}, "c994b51170eef25f97921877489bee4cd0db339df0e4b2268ba7a8c7": {"province": "Ontario", "city": "Waterloo", "term": "Fall", "name": "Karina Sils", "sector": "", "title": "Product Designer", "country": "Canada", "industry": "", "termNumber": "5", "isWorking": "Yes", "employerUrl": "http://www.desire2learn.com/", "mapLocation": {"lat": 43.451174, "lng": -80.498012, "name": "Desire2Learn Incorporated", "address": "151 Charles Street West #400 Kitchener, ON N2G 1H6 Canada, Canada"}, "typeOfWork": "UI Design", "year": "2012", "employerPrevious": "No", "jobPrevious": "No", "employer": "Desire2Learn", "": ""}, "b0fc93f797e918f3cc741493cebf1235abb9a4e6d61de0158f793521": {"province": "Ontario", "city": "Ottawa", "term": "Summer", "name": "Karina Sils", "sector": "Public", "title": "Ice Model Research Assistant", "country": "Canada", "industry": "Government", "termNumber": "3", "isWorking": "Yes", "employerUrl": "", "mapLocation": {"lat": 45.427719, "lng": -75.667555, "name": "Environment Canada", "address": "335 River Rd, Gloucester, ON, Canada"}, "typeOfWork": "Software Development", "year": "2011", "employerPrevious": "No", "jobPrevious": "No ", "employer": "Environment Canada"}, "97e27f11f5820116c87c2ac9100f440b6938db280443b4ebda94426a": {"province": "Ontario", "city": "Kitchener", "term": "Summer", "name": "Karina Sils", "sector": "Private", "title": "Mobile Product Designer", "country": "Canada", "industry": "Elearning", "termNumber": "6", "isWorking": "Yes", "employerUrl": "http://www.desire2learn.com/", "mapLocation": {"lat": 43.451174, "lng": -80.498012, "name": "Desire2Learn Incorporated", "address": "151 Charles Street West #400 Kitchener, ON N2G 1H6 Canada, Canada"}, "typeOfWork": "UI/UX Design", "year": "2013", "employerPrevious": "Yes", "jobPrevious": "No", "employer": "Desire2Learn", "": ""}, "87dbc43429f97fed6dcd91386c17326bf8edd6531e665b46a9652b05": {"province": "Ontario", "city": "Waterloo", "term": "Winter", "name": "Karina Sils", "sector": "Private", "title": "Systems Analyst", "country": "Canada", "industry": "Financial/Tech", "termNumber": "4", "isWorking": "Yes", "employerUrl": "", "mapLocation": {"lat": 43.491458, "lng": -80.527128, "name": "Manulife Financial Canada Headquarters", "address": "500 King Street North, Waterloo, ON, Canada"}, "typeOfWork": "Systems Analyst", "year": "2012", "employerPrevious": "No", "jobPrevious": "No", "employer": "Manulife Financial", "": ""}}, "f996a149db481f32a9c887972cc4477a5b04da613d19469e38960bd0": {"c994b51170eef25f97921877489bee4cd0db339df0e4b2268ba7a8c7": {"province": "Singapore", "city": "Singapore", "term": "Fall", "name": "Zack Bernholtz", "": "", "title": "Research Assistant", "country": "Singapore", "industry": "Transportation", "year": "2012", "termNumber": "2", "employerUrl": "", "classYear": "2016", "address": "21 Lower Kent Ridge Road", "employer": "National University of Singapore", "description": "Analyzed large amounts of data to aid in optimization decisions for improving the Singapore public transportation system"}, "97e27f11f5820116c87c2ac9100f440b6938db280443b4ebda94426a": {"province": "Ontario", "city": "Waterloo", "term": "Summer", "name": "Zack Bernholtz", "": "", "title": "Mechanical Co-op Student", "country": "Canada", "industry": "Automotive", "year": "2013", "termNumber": "3", "employerUrl": "", "classYear": "2016", "address": "200 University Avenue W", "employer": "Midnight Sun Solar Rayce Car Team", "description": "Fixing up MSX to race in the Formula Sun Grand Prix in Texas and design and analysis for the new car, MSXI."}, "5c7a1999689356f08ea72dd40a8fc0b185461b349c407b53d305af26": {"province": "Baden-W\u00fcrttemberg", "city": "Waldkrich", "term": "Winter", "name": "Zack Bernholtz", "title": "Mechanical Engineering Internship", "country": "Germany", "industry": "Industrial Automation", "year": "2014", "termNumber": "4", "employerUrl": "http://www.sick.com/group/EN/home/Pages/Homepage1.aspx", "classYear": "2016", "address": "Erwin-Sick-Stra\u00dfe 1", "employer": "SICK AG", "description": "I'll found out when I get there."}, "87dbc43429f97fed6dcd91386c17326bf8edd6531e665b46a9652b05": {"province": "Ontario", "city": "Toronto", "term": "Winter", "name": "Zack Bernholtz", "title": "Electrical and Mechanical Testing Assistant", "country": "Canada", "industry": "Renewables & Environment", "year": "2012", "termNumber": "1", "employerUrl": "", "classYear": "2016", "address": "30 Ordnance St.", "employer": "Morgan Solar Inc.", "description": "Testing Mechanical and Electrical systems, making improvements to increase lifetime of products. Very independent work environment."}}, "567af1ca885ef7c15b1667b0f2c63fb85deb98424fff462096e701b0": {"55bd4065ca67c891c240b6626ee0ee7283afb779bac738d084bd832c": {"province": "Ontario", "city": "Toronto", "term": "Winter", "titlePrevious": "Yes", "name": "Grace Ku", "sector": "Private", "title": "Programmer/Developer", "country": "Canada", "industry": "New Media Agency", "termNumber": "1", "isWorking": "Yes", "employerUrl": "", "mapLocation": {"lat": 43.737087, "lng": -79.343503, "name": "Rich Media", "address": "1090 Don Mills, North York, ON, Canada"}, "typeOfWork": "Web Development", "year": "2010", "employerPrevious": "Yes", "employer": "Rich Media"}, "c994b51170eef25f97921877489bee4cd0db339df0e4b2268ba7a8c7": {"province": "California", "city": "Mountain View", "term": "Fall", "name": "Grace Ku", "sector": "Private", "title": "Software Engineering Intern", "country": "USA", "industry": "Software", "termNumber": "5", "isWorking": "Yes", "employerUrl": "https://angel.co/wifislam", "mapLocation": {"lat": 37.446226, "lng": -122.131627, "name": "Prioleau Advisors", "address": "140 Iris Way, Palo Alto, CA, United States"}, "typeOfWork": "Software Dev", "year": "2012", "employerPrevious": "No", "jobPrevious": "No", "employer": "WifiSLAM", "": ""}, "b0fc93f797e918f3cc741493cebf1235abb9a4e6d61de0158f793521": {"province": "Ontario", "city": "Toronto", "term": "Summer", "name": "Grace Ku", "sector": "Public", "title": "Application Developer (Mobile Client Team)", "country": "Canada", "industry": "Software - Enterprise CRM", "termNumber": "3", "isWorking": "Yes", "employerUrl": "", "mapLocation": {"lat": 43.744409, "lng": -79.406335, "name": "NexJ Systems Inc.", "address": "Suite 700, 10 York Mills Road, Toronto, ON, Canada"}, "typeOfWork": "Mobile Client Development", "year": "2011", "employerPrevious": "No", "jobPrevious": "No", "employer": "NexJ Systems Inc."}, "97e27f11f5820116c87c2ac9100f440b6938db280443b4ebda94426a": {"province": "California", "city": "Menlo Park", "term": "Summer", "name": "Grace Ku", "sector": "Private", "title": "Software Engineer Intern", "country": "USA", "industry": "Social Networking", "termNumber": "6", "isWorking": "Yes", "employerUrl": "https://www.facebook.com/facebook", "mapLocation": {"lat": 37.483258, "lng": -122.149623, "name": "Facebook Inc.", "address": "1601 Willow Road, Menlo Park, CA, United States"}, "typeOfWork": "Infrastructure (Software)", "year": "2013", "employerPrevious": "No", "jobPrevious": "No", "employer": "Facebook", "": ""}, "87dbc43429f97fed6dcd91386c17326bf8edd6531e665b46a9652b05": {"province": "California", "city": "San Diego", "term": "Winter", "name": "Grace Ku", "sector": "", "title": "WebKit Dev Engineer", "country": "USA", "industry": "Software", "termNumber": "4", "isWorking": "Yes", "employerUrl": "", "mapLocation": {"lat": 32.895732, "lng": -117.195861, "name": "Qualcomm Incorporated", "address": "5775 Morehouse Drive, San Diego, CA, United States"}, "typeOfWork": "Development", "year": "2012", "employerPrevious": "No", "jobPrevious": "No", "employer": "Qualcomm", "": ""}}, "43c5f7b468396d3d601a1f58cfc00258dbb496e9f9125cf01ec73beb": {"87dbc43429f97fed6dcd91386c17326bf8edd6531e665b46a9652b05": {"province": "Ontario", "city": "Toronto", "term": "Winter", "name": "Mark Wai", "sector": "", "title": "Jr Professional Services Consultant", "country": "Canada", "industry": "", "termNumber": "4", "isWorking": "", "employerUrl": "", "mapLocation": {"lat": 43.647556, "lng": -79.403973, "name": "Nulogy Corporation", "address": "Suite 900, 555 Richmond Street West, Toronto, ON, Canada"}, "typeOfWork": "", "year": "2012", "employerPrevious": "", "jobPrevious": "", "employer": "Nulogy", "": ""}}, "cce68edead5df2300b3970f1214b8cb15dcee14cc7d53ff656d5d5aa": {"87dbc43429f97fed6dcd91386c17326bf8edd6531e665b46a9652b05": {"province": "Ontario", "city": "Toronto", "term": "Winter", "name": "Feyisola Agbaje", "sector": "", "title": "Process Specialist/BI Developer", "country": "Canada", "industry": "", "termNumber": "4", "isWorking": "", "employerUrl": "", "mapLocation": {"lat": 43.656216, "lng": -79.381959, "name": "OLG Prize Centre", "address": "20 Dundas Street West, Toronto, ON, Canada"}, "typeOfWork": "", "year": "2012", "employerPrevious": "No", "jobPrevious": "No", "employer": "OLG", "": ""}}, "bd1f7a05daee26c508333162f0c904b543358dfdb0bcf6334cca7ac6": {"87dbc43429f97fed6dcd91386c17326bf8edd6531e665b46a9652b05": {"province": "California", "city": "Palo Alto", "term": "Winter", "name": "Matthew Ng", "sector": "", "title": "Software Developer", "country": "Canada", "industry": "", "termNumber": "4", "isWorking": "", "employerUrl": "", "mapLocation": {"lat": 18.092928, "lng": -96.129828, "name": "rumba", "address": "2 3, Oaxaca, Mexico"}, "typeOfWork": "", "year": "2012", "employerPrevious": "", "jobPrevious": "", "employer": "IMVU", "": ""}}, "f7d20a78e64317de7a236137f02f11aa741cb3f7f62176e5e23eeadf": {"55bd4065ca67c891c240b6626ee0ee7283afb779bac738d084bd832c": {"province": "Ontario", "city": "Ottawa", "term": "Winter", "titlePrevious": "No", "name": "Brian Sinclair", "sector": "Private", "title": "Systems Design Engineer", "country": "Canada", "industry": "Military ", "termNumber": "1", "isWorking": "Yes", "employerUrl": "", "mapLocation": {"lat": 45.328111, "lng": -75.825838, "name": "General Dynamics Canada", "address": "1941 Robertson Road, Ottawa, ON, Canada"}, "typeOfWork": "Systems Design Engineering/ Human Factors Engineering", "year": "2010", "employerPrevious": "No", "employer": "General Dynamics Canada"}, "b0fc93f797e918f3cc741493cebf1235abb9a4e6d61de0158f793521": {"province": "Ontario", "city": "Toronto", "term": "Summer", "name": "Brian Sinclair", "sector": "Private", "title": "Software Developer", "country": "Canada", "industry": "Web Dev", "termNumber": "3", "isWorking": "Yes", "employerUrl": "", "mapLocation": {"lat": 43.639032, "lng": -79.420693, "name": "I Love Rewards", "address": "99 Atlantic Ave, Toronto, ON, Canada"}, "typeOfWork": "Software Development", "year": "2011", "employerPrevious": "Maybe", "jobPrevious": "No", "employer": "Achievers (formerly, I Love Rewards Inc.)"}, "97e27f11f5820116c87c2ac9100f440b6938db280443b4ebda94426a": {"province": "BC", "city": "Vancouver", "term": "Summer", "name": "Brian Sinclair", "sector": "", "title": "Business Technology Analyst", "country": "Canada", "industry": "Consulting", "termNumber": "6", "isWorking": "Yes", "employerUrl": "http://www.deloitte.com/view/en_CA/ca/index.htm", "mapLocation": {"lat": 49.286232, "lng": -123.121276, "name": "Deloitte", "address": "1055 Dunsmuir Street, Vancouver, BC, Canada"}, "typeOfWork": "Consulting", "year": "2013", "employerPrevious": "No", "jobPrevious": "No", "employer": "Deloitte", "": ""}, "87dbc43429f97fed6dcd91386c17326bf8edd6531e665b46a9652b05": {"province": "", "city": "", "term": "Winter", "name": "Brian Sinclair", "sector": "Public", "title": "Backpacker", "country": "Australia/New Zealand", "industry": "Nature", "termNumber": "4", "isWorking": "No", "employerUrl": "", "mapLocation": {"lat": 48.424294, "lng": -123.365652, "name": "Pacesetter Travel", "address": "Suite 350-1070 Douglas St, Victoria, BC, Canada"}, "typeOfWork": "Hiking", "year": "2012", "employerPrevious": "No", "jobPrevious": "No", "employer": "None", "": ""}}, "b4a42a04b8cc8849d8d8a05060dee8e761b614512083ba39930dad93": {"c994b51170eef25f97921877489bee4cd0db339df0e4b2268ba7a8c7": {"province": "Ontario", "city": "Kitchener", "term": "Fall", "name": "Valentin Tsatskin", "": "", "title": "Software Developer", "country": "Canada", "industry": "Education", "year": "2012", "termNumber": "2", "employerUrl": "", "classYear": "2016", "address": "151 Charles St", "employer": "Desire2Learn", "description": "Helped develop tools students and teachers use to access web-based educational content"}, "97e27f11f5820116c87c2ac9100f440b6938db280443b4ebda94426a": {"province": "Ontario", "city": "Kitchener", "term": "Summer", "name": "Valentin Tsatskin", "": "", "title": "Gesture Controls Software Developer", "country": "Canada", "industry": "Consumer Electronics", "year": "2013", "termNumber": "3", "employerUrl": "", "classYear": "2016", "address": "151 Charles St. West", "employer": "Thalmic Labs", "description": "Wrote the iOS API for the Myo. Developed applications using the API: internal graphing tools and data collection, control of AR.Drone with a Myo."}, "5c7a1999689356f08ea72dd40a8fc0b185461b349c407b53d305af26": {"province": "California", "city": "San Francisco", "term": "Winter", "name": "Valentin Tsatskin", "title": "User Experience Designer", "country": "USA", "industry": "Computer Software", "year": "2014", "termNumber": "4", "employerUrl": "http://www.mozilla.org/en-US/", "classYear": "2016", "address": "2 Harrison St., Suite 175", "employer": "Mozilla", "description": ""}, "87dbc43429f97fed6dcd91386c17326bf8edd6531e665b46a9652b05": {"province": "Ontario", "city": "Toronto", "term": "Winter", "name": "Valentin Tsatskin", "title": "Ruby on Rails Web Application Developer", "country": "Canada", "industry": "Social Media", "year": "2012", "termNumber": "1", "employerUrl": "", "classYear": "2016", "address": "69 Yonge St.", "employer": "Engagio", "description": "Full stack web development"}}, "3e8c33692af104bc9552f86fba760afc3c7bce883ffabf2f4de3f524": {"5c7a1999689356f08ea72dd40a8fc0b185461b349c407b53d305af26": {"province": "ON", "city": "Toronto", "term": "Winter", "name": "Kassy (Kassandra) Predovic", "title": "Project Assistant", "country": "Canada", "industry": "", "year": "2014", "termNumber": "1", "employerUrl": "", "classYear": "2018", "address": "", "employer": "Seneca", "description": ""}}, "f63ae8d5c81dcb217e044e478e26ea5eb378338798ae1190f232ce2c": {"271fca6f897eba601074c62b07eabe30b0a837dfcd45536a1ad55dd0": {"province": "ON", "city": "Toronto", "term": "Winter", "titlePrevious": "N", "name": "James Yeh", "sector": "Private", "title": "Mobile Software Engineer", "country": "Canada", "industry": "Software", "year": "2011", "termNumber": "1", "isWorking": "Y", "employerUrl": "http://www.osellus.com/", "classYear": "2015", "mapLocation": {"lat": 43.649695, "lng": -79.382392, "name": "Osellus Inc", "address": "100 Adelaide W, Toronto, ON, Canada"}, "address": "", "employerPrevious": "N", "employer": "Osellus Inc", "description": "Full Stack Android developer"}, "b86e5931f575e14a898ce76690cfbce827a24b1f8eaaa5b602e29c0d": {"province": "New York", "city": "Manhatton", "term": "Fall", "titlePrevious": "N", "name": "James Yeh", "sector": "Private", "title": "Software Engineer", "country": "USA", "industry": "Media/Tech", "year": "2013", "termNumber": "5", "isWorking": "Y", "employerUrl": "http://www.bloomberg.com/", "classYear": "2015", "address": "", "employerPrevious": "N", "employer": "Bloomberg", "description": ""}, "2bbb78e381ee07e7f8422f2cf90f096602f38e6a73cec9598daf4704": {"province": "California", "city": "Burlingame", "term": "Summer", "titlePrevious": "N", "name": "James Yeh", "sector": "Private", "title": "Software Engineer", "country": "USA", "industry": "Software", "year": "2012", "termNumber": "3", "isWorking": "Y", "employerUrl": "http://www.tellapart.com/", "classYear": "2015", "mapLocation": {"lat": 37.580634, "lng": -122.343338, "name": "TellApart, Inc.", "address": "257 Myrtle Road, Burlingame, CA, United States"}, "address": "", "employerPrevious": "N", "employer": "TellApart Inc", "description": "Full stack developer/ Data Analytics"}, "466b3a3a913da2d9050efc62a8f1c9ad02ebbae5c84cd2c1c7bdf914": {"province": "California", "city": "Burlingame", "term": "Winter", "titlePrevious": "Y", "name": "James Yeh", "sector": "Private", "title": "Software Engineer", "country": "USA", "industry": "Software", "year": "2013", "termNumber": "4", "isWorking": "Y", "employerUrl": "http://www.tellapart.com/", "classYear": "2015", "mapLocation": {"lat": 37.580634, "lng": -122.343338, "name": "TellApart, Inc.", "address": "257 Myrtle Road, Burlingame, CA, United States"}, "address": "", "employerPrevious": "Y", "employer": "TellApart Inc", "description": "Full stack developer/ Data Analytics"}, "0679b25b14f91f4bb1aa1249d91cfb1450f1466491f90fc8a1c86fb2": {"province": "ON", "city": "Toronto", "term": "Fall", "titlePrevious": "Y", "name": "James Yeh", "sector": "Private", "title": "Mobile Software Engineer", "country": "Canada", "industry": "Software", "year": "2011", "termNumber": "2", "isWorking": "Y", "employerUrl": "http://www.osellus.com/", "classYear": "2015", "mapLocation": {"lat": 43.649695, "lng": -79.382392, "name": "Osellus Inc", "address": "100 Adelaide W, Toronto, ON, Canada"}, "address": "", "employerPrevious": "Y", "employer": "Osellus Inc", "description": "Full Stack Android developer"}}, "923fef3c6c40901d8e41ec702e517b716081d1406fe2125b63a2be16": {"c994b51170eef25f97921877489bee4cd0db339df0e4b2268ba7a8c7": {"province": "Ontaio", "city": "Kanata", "term": "Fall", "name": "Ray Hou", "": "", "title": "Reporting Service Intern", "country": "Canada", "industry": "Software", "year": "2012", "termNumber": "2", "employerUrl": "", "classYear": "2016", "address": "191 Michael Coland", "employer": "JSI Telecom", "description": "Creating dynamic report connected to database"}, "97e27f11f5820116c87c2ac9100f440b6938db280443b4ebda94426a": {"province": "Ontario", "city": "Toronto", "term": "Summer", "name": "Ray Hou", "": "", "title": "Automation QA Developer", "country": "Canada", "industry": "Mining and Exploration", "year": "2013", "termNumber": "3", "employerUrl": "", "classYear": "2016", "address": "207 Queens Quay", "employer": "Geosoft", "description": "Writing automated test scripts in an agile environment with two other teammates, gained exposure to agile, writing modular code, software development in general. Really good experience, nice work environment and co-worker"}, "87dbc43429f97fed6dcd91386c17326bf8edd6531e665b46a9652b05": {"province": "Ontario", "city": "Toronto", "term": "Winter", "name": "Ray Hou", "title": "Web Analyst", "country": "Canada", "industry": "Information Technology and Services", "year": "2012", "termNumber": "1", "employerUrl": "", "classYear": "2016", "address": "20 Richmond St", "employer": "Intrafinity", "description": "Web content generating, drafting proposals"}}, "bb1987df84817d504536e8d17150af348ceaf866e9dcf63580139283": {"c994b51170eef25f97921877489bee4cd0db339df0e4b2268ba7a8c7": {"province": "Ontario", "city": "Toronto", "term": "Fall", "name": "Henry", "sector": "", "title": "Mechanical & Electrical Engineer", "country": "Canada", "industry": "Construction", "termNumber": "5", "isWorking": "Yes", "employerUrl": "http://www.pcl.com/Pages/default.aspx", "mapLocation": {"lat": 43.645057, "lng": -79.384152, "name": "PCL Constructors Inc.", "address": "156 Front Street West, Toronto, ON, Canada"}, "typeOfWork": "Construction, Design & Engineering", "year": "2012", "employerPrevious": "Yes", "jobPrevious": "No", "employer": "PCL", "": ""}}, "3eb14fafcc344c2ed2953dfc60395f404fecbb7134a87eda917b8d58": {"55bd4065ca67c891c240b6626ee0ee7283afb779bac738d084bd832c": {"province": "Ontario", "city": "Waterloo", "term": "Winter", "titlePrevious": "no", "name": "Owen Coutts", "sector": "Private", "title": "Project Manager", "country": "Canada", "industry": "Telecommunications", "termNumber": "1", "isWorking": "Yes", "employerUrl": "", "mapLocation": {"lat": 43.479674, "lng": -80.543148, "name": "Research In Motion", "address": "176 Columbia Street West, Waterloo, ON, Canada"}, "typeOfWork": "Project Management", "year": "2010", "employerPrevious": "no", "employer": "RIM"}, "c994b51170eef25f97921877489bee4cd0db339df0e4b2268ba7a8c7": {"province": "California", "city": "San Fransisco", "term": "Fall", "name": "Owen Coutts", "sector": "", "title": "Software Engineering", "country": "USA", "industry": "", "termNumber": "5", "isWorking": "Yes", "employerUrl": "http://about.pinterest.com/", "mapLocation": {"lat": 37.778216, "lng": -122.390879, "name": "San Francisco Giants", "address": "24 Willie Mays Plaza, San Francisco, CA, United States"}, "typeOfWork": "", "year": "2012", "employerPrevious": "no", "jobPrevious": "no", "employer": "Pinterest", "": ""}, "b0fc93f797e918f3cc741493cebf1235abb9a4e6d61de0158f793521": {"province": "California", "city": "Mountain View", "term": "Summer", "name": "Owen Coutts", "sector": "Not for Profit", "title": "Software Developer", "country": "United States", "industry": "Software", "termNumber": "3", "isWorking": "Yes", "employerUrl": "", "mapLocation": {"lat": 37.388183, "lng": -122.082895, "name": "Mozilla", "address": "650 Castro Street #300, Mountain View, CA, United States"}, "typeOfWork": "Software Development", "year": "2011", "employerPrevious": "No", "jobPrevious": "no", "employer": "Mozilla"}, "87dbc43429f97fed6dcd91386c17326bf8edd6531e665b46a9652b05": {"province": "California", "city": "Mountain View", "term": "Winter", "name": "Owen Coutts", "sector": "Not for Profit", "title": "Software Developer", "country": "USA", "industry": "browser makin", "termNumber": "4", "isWorking": "Yes", "employerUrl": "", "mapLocation": {"lat": 37.388183, "lng": -122.082895, "name": "Mozilla", "address": "650 Castro Street #300, Mountain View, CA, United States"}, "typeOfWork": "Software Dev", "year": "2012", "employerPrevious": "", "jobPrevious": "Yes", "employer": "Mozilla", "": ""}}, "0e91e6e7c1882aec77a5431becfc5e6200c7c3ba2ca2d0e19856f780": {"5c7a1999689356f08ea72dd40a8fc0b185461b349c407b53d305af26": {"province": "ON", "city": "Burlington", "term": "Winter", "name": "Trent Lavoie", "title": "Software QA Engineer", "country": "Canada", "industry": "Computer Software", "year": "2014", "termNumber": "1", "employerUrl": "", "classYear": "2018", "address": "1111 International Blvd.", "employer": "EMC", "description": ""}}, "ff7f2adc67e7987a0e229073b83210e5f9f5c73d00f1d7dcb1e63de5": {"55bd4065ca67c891c240b6626ee0ee7283afb779bac738d084bd832c": {"province": "Ontario", "city": "Toronto", "term": "Winter", "titlePrevious": "No", "name": "Sarah Elliott", "sector": "Private", "title": "Junior Technical Analyst", "country": "Canada", "industry": "Finance", "termNumber": "1", "isWorking": "Yes", "employerUrl": "", "mapLocation": {"lat": 43.780102, "lng": -79.416248, "name": "Ontario Teachers' Pension Plan (OTPP)", "address": "12th floor, 5650 Yonge Street, Toronto, ON, Canada"}, "typeOfWork": "IT Infrastructure", "year": "2010", "employerPrevious": "No", "employer": "Ontario Teachers' Pension Plan"}, "c994b51170eef25f97921877489bee4cd0db339df0e4b2268ba7a8c7": {"province": "California", "city": "Menlo Park", "term": "Fall", "name": "Sarah Elliott", "sector": "", "title": "Human-Robot Interaction Intern", "country": "USA", "industry": "", "termNumber": "5", "isWorking": "Yes", "employerUrl": "http://www.willowgarage.com/", "mapLocation": {"lat": 37.314315, "lng": -121.89039, "name": "Aaron Overhead Door", "address": "471 Willow Street, San Jose, CA, United States"}, "typeOfWork": "", "year": "2012", "employerPrevious": "Yes", "jobPrevious": "Yes", "employer": "Willow Garage", "": ""}, "b0fc93f797e918f3cc741493cebf1235abb9a4e6d61de0158f793521": {"province": "California", "city": "Sunnyvale", "term": "Summer", "name": "Sarah Elliott", "sector": "Private", "title": "Software Developer", "country": "United States", "industry": "Software (mobile, web)", "termNumber": "3", "isWorking": "Yes", "employerUrl": "", "mapLocation": {"lat": 37.36883, "lng": -122.0363496, "name": "Sunnyvale", "address": "Sunnyvale, CA, USA"}, "typeOfWork": "Software Development", "year": "2011", "employerPrevious": "No", "jobPrevious": "No", "employer": "SkyGrid"}, "97e27f11f5820116c87c2ac9100f440b6938db280443b4ebda94426a": {"province": "California", "city": "Mountain View", "term": "Summer", "name": "Sarah Elliott", "sector": "Private", "title": "Software Engineer Intern", "country": "USA", "industry": "Robotics", "termNumber": "6", "isWorking": "Yes", "employerUrl": "http://www.osrfoundation.org/", "mapLocation": {"lat": 37.782308, "lng": -122.471551, "name": "Internet Archive", "address": "300 Funston Avenue, San Francisco, CA, United States"}, "typeOfWork": "Software Dev", "year": "2013", "employerPrevious": "No", "jobPrevious": "No", "employer": "Open Source Robotics Foundation", "": ""}, "87dbc43429f97fed6dcd91386c17326bf8edd6531e665b46a9652b05": {"province": "California", "city": "Palo Alto", "term": "Winter", "name": "Sarah Elliott", "sector": "Private", "title": "Human-Robot Interaction Intern", "country": "USA", "industry": "Robotics", "termNumber": "4", "isWorking": "Yes", "employerUrl": "", "mapLocation": {"lat": 37.452629, "lng": -122.166378, "name": "Willow Garage", "address": "68 Willow Road, Menlo Park, CA, United States"}, "typeOfWork": "Robotics Software, Android", "year": "2012", "employerPrevious": "No", "jobPrevious": "No", "employer": "Willow Garage", "": ""}}, "445534f7b78ff16507864807804cb77a25421c42a19c2c980d1bcebe": {"55bd4065ca67c891c240b6626ee0ee7283afb779bac738d084bd832c": {"province": "Ontario", "city": "Toronto", "term": "Winter", "titlePrevious": "No", "name": "Riley Donelson", "sector": "Private", "title": "Technical Project Assistant", "country": "Canada", "industry": "Internet Consulting", "termNumber": "1", "isWorking": "Yes", "employerUrl": "", "mapLocation": {"lat": 43.647615, "lng": -79.391826, "name": "imason inc.", "address": "312 Adelaide Street West #801, Toronto, ON, Canada"}, "typeOfWork": "Web Development", "year": "2010", "employerPrevious": "No", "employer": "imason inc."}, "c994b51170eef25f97921877489bee4cd0db339df0e4b2268ba7a8c7": {"province": "Ontario", "city": "Kitchener", "term": "Fall", "name": "Riley Donelson", "sector": "Private", "title": "User Experience Designer", "country": "Canada", "industry": "", "termNumber": "5", "isWorking": "Yes", "employerUrl": "http://www.communitech.ca/about/", "mapLocation": {"lat": 43.451401, "lng": -80.498916, "name": "Communitech Hub", "address": "151 Charles Street West, Kitchener, ON, Canada"}, "typeOfWork": "", "year": "2012", "employerPrevious": "No", "jobPrevious": "No", "employer": "Communitech", "": ""}, "b0fc93f797e918f3cc741493cebf1235abb9a4e6d61de0158f793521": {"province": "Ontario", "city": "Waterloo", "term": "Summer", "name": "Riley Donelson", "sector": "Private", "title": "Project Administrator", "country": "Canada", "industry": "Insurance", "termNumber": "3", "isWorking": "Yes", "employerUrl": "", "mapLocation": {"lat": 43.46606, "lng": -80.506725, "name": "The Economical Insurance Group", "address": "111 Regional Road 8, Waterloo, ON, Canada"}, "typeOfWork": "Project Management", "year": "2011", "employerPrevious": "No", "jobPrevious": "No", "employer": "Economical Insurance Group"}, "97e27f11f5820116c87c2ac9100f440b6938db280443b4ebda94426a": {"province": "California", "city": "Cupertino", "term": "Summer", "name": "Riley Donelson", "sector": "Public", "title": "User Interface Designer", "country": "USA", "industry": "Consumer Electronics", "termNumber": "6", "isWorking": "Yes", "employerUrl": "http://www.apple.com/", "mapLocation": {"lat": 37.3317929, "lng": -122.0295837, "name": "Apple Inc.", "address": "Apple Inc., 1 Infinite Loop, Cupertino, CA 95014, USA"}, "typeOfWork": "UI Design", "year": "2013", "employerPrevious": "No", "jobPrevious": "No", "employer": "Apple", "": ""}, "87dbc43429f97fed6dcd91386c17326bf8edd6531e665b46a9652b05": {"province": "", "city": "", "term": "Winter", "name": "Riley Donelson", "sector": "", "title": "World Traveller", "country": "", "industry": "", "termNumber": "4", "isWorking": "No", "employerUrl": "", "mapLocation": {"lat": 35.996046, "lng": -78.90261, "name": "Self-Help Credit Union", "address": "301 West Main Street, Durham, NC, United States"}, "typeOfWork": "", "year": "2012", "employerPrevious": "", "jobPrevious": "", "employer": "Self", "": ""}}, "f93663efd135a310ed18a61e634e5ba44f6d8fb39751fc6dd6f9c2ce": {"87dbc43429f97fed6dcd91386c17326bf8edd6531e665b46a9652b05": {"province": "Ontario", "city": "St. Catharines", "term": "Winter", "name": "Sofia Loureiro", "title": "Controls Engineer", "country": "Canada", "industry": "Automotive Industry", "year": "2012", "termNumber": "1", "employerUrl": "", "classYear": "2016", "address": "570 Glendale Ave", "employer": "General Motors ", "description": "Optimized serial number tracking in assembly lines by installing and programming sensors, scanners, and alarm systems"}}, "8c540a7394c91125eed74a579a021557e0c2d3ace98b90284ee74554": {"b86e5931f575e14a898ce76690cfbce827a24b1f8eaaa5b602e29c0d": {"province": "ON", "city": "Waterloo", "term": "Fall", "name": "Monica Moore", "title": "Content Developer", "country": "Canada", "industry": "Computer Software", "address": "615 Kumpf Drive", "termNumber": "2", "employerUrl": "http://www.maplesoft.com/", "classYear": "2017", "year": "2013", "employer": "Maplesoft", "description": "Author physics and calc questions for textbooks' online content"}, "466b3a3a913da2d9050efc62a8f1c9ad02ebbae5c84cd2c1c7bdf914": {"province": "Alberta", "city": "Edmonton", "term": "Winter", "name": "Monica Moore", "title": "Project Coordinator", "country": "Canada", "industry": "Civil Engineering", "address": "#209A, 11617-106 Ave NW", "termNumber": "1", "employerUrl": "http://www.capms.ca/", "classYear": "2017", "year": "2013", "employer": "CAP Management", "description": "Coordinated project working on a transmission line being built in Alberta. Was mostly in Hanna, AB"}}, "524b46899904528d84d200ccb569b2216a8efb1a38f81d07d892edef": {"55bd4065ca67c891c240b6626ee0ee7283afb779bac738d084bd832c": {"province": "Ontario", "city": "Guelph (the best)", "term": "Winter", "titlePrevious": "No", "name": "Sebastian Hernandez", "sector": "Private", "title": "Engineering Assistant", "country": "Canada", "industry": "Energy Consulting", "termNumber": "1", "isWorking": "Yes", "employerUrl": "", "mapLocation": {"lat": 43.532406, "lng": -80.232939, "name": "Agviro Inc", "address": "367 Gordon, Guelph, ON, Canada"}, "typeOfWork": "Energy Efficiency Audits. Small company", "year": "2010", "employerPrevious": "No", "employer": "Agviro Inc."}, "b0fc93f797e918f3cc741493cebf1235abb9a4e6d61de0158f793521": {"province": "Ontario", "city": "Brampton", "term": "Summer", "name": "Sebastian Hernandez", "sector": "Public", "title": "Administrative Assistant", "country": "Canada", "industry": "Government", "termNumber": "3", "isWorking": "Yes", "employerUrl": "", "mapLocation": {"lat": 43.6833333, "lng": -79.7666667, "name": "Brampton", "address": "Brampton, ON, Canada"}, "typeOfWork": "Access Database stuff, Energy management study", "year": "2011", "employerPrevious": "No", "jobPrevious": "No", "employer": "The Corporation of the City of Brampton"}, "87dbc43429f97fed6dcd91386c17326bf8edd6531e665b46a9652b05": {"province": "Ontario", "city": "Ottawa", "term": "Winter", "name": "Sebastian Hernandez", "sector": "Public", "title": "HF Research Assistant", "country": "Canada", "industry": "Government", "termNumber": "4", "isWorking": "Yes", "employerUrl": "", "mapLocation": {"lat": 45.419089, "lng": -75.704365, "name": "Transport Canada Toastmasters", "address": "330 Sparks Street, Ottawa, ON, Canada"}, "typeOfWork": "Research, running experiment", "year": "2012", "employerPrevious": "No", "jobPrevious": "No", "employer": "Transportation Canada", "": ""}}, "bf3e7c2defbb6ac2ed8af920859a41306f0438fcd2dd473566550bab": {"55bd4065ca67c891c240b6626ee0ee7283afb779bac738d084bd832c": {"province": "Ontario", "city": "Burlington", "term": "Winter", "titlePrevious": "No", "name": "Ayman Nadeem", "sector": "Private", "title": "Product Manager", "country": "Canada", "industry": "Software", "termNumber": "1", "isWorking": "No", "employerUrl": "", "mapLocation": {"lat": 43.382217, "lng": -79.768633, "name": "Awareness Inc.", "address": "5050 South Service Road, Burlington, ON, Canada"}, "typeOfWork": "Social Media software development, small company.", "year": "2010", "employerPrevious": "No", "employer": "Awareness, Inc."}, "c994b51170eef25f97921877489bee4cd0db339df0e4b2268ba7a8c7": {"province": "washington", "city": "seattle", "term": "Fall", "name": "Ayman Nadeem", "sector": "Private", "title": "Product Management", "country": "USA", "industry": "", "termNumber": "5", "isWorking": "Yes", "employerUrl": "www.microsoft.com/en-ca/", "mapLocation": {"lat": 47.639615, "lng": -122.128379, "name": "Microsoft Corporation", "address": "1 157th Avenue Northeast, Redmond, WA, United States"}, "typeOfWork": "PM", "year": "2012", "employerPrevious": "yes", "jobPrevious": "same hustle, different team", "employer": "Microsoft Corporation", "": ""}, "97e27f11f5820116c87c2ac9100f440b6938db280443b4ebda94426a": {"province": "California", "city": "San Francisco", "term": "Summer", "name": "Ayman Nadeem", "sector": "Private", "title": "Product Manager Intern", "country": "USA", "industry": "Software", "termNumber": "6", "isWorking": "Yes", "employerUrl": "https://www.dropbox.com/", "mapLocation": {"lat": 37.776588, "lng": -122.39214, "name": "Dropbox Inc", "address": "185 Berry Street #400, San Francisco, CA, United States"}, "typeOfWork": "Software", "year": "2013", "employerPrevious": "No", "jobPrevious": "Yes", "employer": "Dropbox", "": ""}, "87dbc43429f97fed6dcd91386c17326bf8edd6531e665b46a9652b05": {"province": "Washington", "city": "Seattle", "term": "Winter", "name": "Ayman Nadeem", "sector": "Private", "title": "Program Manager", "country": "USA", "industry": "Exchange Server", "termNumber": "4", "isWorking": "Yes", "employerUrl": "", "mapLocation": {"lat": 47.639615, "lng": -122.128379, "name": "Microsoft Corporation", "address": "1 157th Avenue Northeast, Redmond, WA, United States"}, "typeOfWork": "Program Manager", "year": "2012", "employerPrevious": "No", "jobPrevious": "No", "employer": "Microsoft Corporation", "": ""}}, "158a7e1e6294d92495b48f77cb72caf4aa224a0467fd74df430916c9": {"55bd4065ca67c891c240b6626ee0ee7283afb779bac738d084bd832c": {"province": "Ontario", "city": "Toronto", "term": "Winter", "titlePrevious": "No", "name": "Xunzhi Sun", "sector": "Private", "title": "Professional Services Consultant", "country": "Canada", "industry": "Software", "termNumber": "1", "isWorking": "Yes", "employerUrl": "", "mapLocation": {"lat": 43.744409, "lng": -79.406335, "name": "NexJ Systems Inc.", "address": "Suite 700, 10 York Mills Road, Toronto, ON, Canada"}, "typeOfWork": "Consulting", "year": "2010", "employerPrevious": "Yes", "employer": "NexJ Systems Inc."}, "c994b51170eef25f97921877489bee4cd0db339df0e4b2268ba7a8c7": {"province": "Ontario", "city": "Waterloo", "term": "Fall", "name": "Xunzhi Sun", "sector": "Private", "title": "Software Engineer", "country": "Canada", "industry": "Software (Video)", "termNumber": "5", "isWorking": "Yes", "employerUrl": "http://www.vidyard.com/about-us/", "mapLocation": {"lat": 43.477057, "lng": -80.535365, "name": "Redwoods Media", "address": "314 Batavia Place, Waterloo, ON, Canada"}, "typeOfWork": "Video Analytics", "year": "2012", "employerPrevious": "No", "jobPrevious": "No", "employer": "VidYard", "": ""}, "87dbc43429f97fed6dcd91386c17326bf8edd6531e665b46a9652b05": {"province": "Ontario", "city": "Toronto", "term": "Winter", "name": "Xunzhi Sun", "sector": "", "title": "Consultant", "country": "Canada", "industry": "", "termNumber": "4", "isWorking": "", "employerUrl": "", "mapLocation": {"lat": 43.744409, "lng": -79.406335, "name": "NexJ Systems Inc.", "address": "Suite 700, 10 York Mills Road, Toronto, ON, Canada"}, "typeOfWork": "", "year": "2012", "employerPrevious": "", "jobPrevious": "", "employer": "NexJ Systems Inc.", "": ""}}, "9b93d9902f57ba22684177cd65806e59014234cb89619bb006bda52f": {"c994b51170eef25f97921877489bee4cd0db339df0e4b2268ba7a8c7": {"province": "Alberta", "city": "Calgary", "term": "Fall", "name": "Harvey Tang", "": "Yes, the company anyway; position depends", "title": "Software Test and Integration Engineering- Calgary", "country": "Canada", "industry": "Defence", "year": "2012", "termNumber": "2", "employerUrl": "", "classYear": "2016", "address": "1020-68th Avenue N.E.", "employer": "General Dynamics Canada", "description": "SI Testing, QA testing, test automation using Powershell and BASH scripts, writing test scenarios for networking device"}, "87dbc43429f97fed6dcd91386c17326bf8edd6531e665b46a9652b05": {"province": "Ontario", "city": "Ottawa", "term": "Winter", "name": "Harvey Tang", "title": "Programmer and Designer", "country": "Canada", "industry": "Aerospace", "year": "2012", "termNumber": "1", "employerUrl": "", "classYear": "2016", "address": "3701 Carling Ave", "employer": "Canadian Space Agency - DFL", "description": "Programming in LabVIEW - development and bug-fixes"}}, "9938400db2dba716bd8453b2affff23bda07e5fe14e102fbafc015b7": {"5c7a1999689356f08ea72dd40a8fc0b185461b349c407b53d305af26": {"province": "ON", "city": "Waterloo", "term": "Winter", "name": "Mira Sleiman", "title": "Events Coordinator for SYDE", "country": "Canada", "industry": "", "year": "2014", "termNumber": "1", "employerUrl": "http://uwaterloo.ca", "classYear": "2018", "address": "200 University Ave W", "employer": "University of Waterloo", "description": ""}}, "02fa8541f30f74c9e1d27d96c5491817f9d1a9c4f86b332a30b70daf": {"5c7a1999689356f08ea72dd40a8fc0b185461b349c407b53d305af26": {"province": "ON", "city": "Kanata/Ottawa", "term": "Winter", "name": "Cassia Deering", "title": "Verification Engineering", "country": "Canada", "industry": "Telecommunications", "year": "2014", "termNumber": "1", "employerUrl": "http://www.skywave.com/", "classYear": "2018", "address": "750 Palladium Dr", "employer": "SkyWave Mobile Communications", "description": ""}}, "e3f54d188f79d1511cbb3ace2943c92391b987dd063bdc20e699f0f9": {"c994b51170eef25f97921877489bee4cd0db339df0e4b2268ba7a8c7": {"province": "California", "city": "Mountain View", "term": "Fall", "name": "Kai", "sector": "Private", "title": "Intern", "country": "USA", "industry": "", "termNumber": "5", "isWorking": "", "employerUrl": "https://www.wifast.com/", "mapLocation": {"lat": 37.530429, "lng": -121.920104, "name": "Windows And Beyond", "address": "155 Anza Street, Fremont, CA, United States"}, "typeOfWork": "", "year": "2012", "employerPrevious": "no", "jobPrevious": "no", "employer": "WiFast", "": ""}}, "9cf87efc4dab0410dc68fd67e052b79053a3cc48e992aca1ac624293": {"c994b51170eef25f97921877489bee4cd0db339df0e4b2268ba7a8c7": {"province": "Ontario", "city": "Markham", "term": "Fall", "name": "Arthur Yan", "": "", "title": "Provisioning Analyst/ Raised Floor Ops", "country": "Canada", "industry": "Data Center", "year": "2012", "termNumber": "2", "employerUrl": "", "classYear": "2016", "address": "Hidden", "employer": "eHealth Ontario", "description": "Create and suport virtual machines and its users. Cabling, base kitting, rack and stack of servers on raised floor"}, "97e27f11f5820116c87c2ac9100f440b6938db280443b4ebda94426a": {"province": "Ontario", "city": "Toronto", "term": "Summer", "name": "Arthur Yan", "": "", "title": "Web Developer", "country": "Canada", "industry": "LIES", "year": "2013", "termNumber": "3", "employerUrl": "", "classYear": "2016", "address": "1090 Don Mills Road", "employer": "Richmedia", "description": "Develop with HTML5, CSS, Javascript for websites with some QA as well"}, "87dbc43429f97fed6dcd91386c17326bf8edd6531e665b46a9652b05": {"province": "Ontario", "city": "Toronto", "term": "Winter", "name": "Arthur Yan", "title": "QA Analyst", "country": "Canada", "industry": "CRM", "year": "2012", "termNumber": "1", "employerUrl": "", "classYear": "2016", "address": "10 York Mills Road, Suite 700,", "employer": "NexJ Systems Inc.", "description": "QA some application."}}, "99d31357b3b7a0315ad15dd081b686653d049e5c189c6f49c9c9167a": {"5c7a1999689356f08ea72dd40a8fc0b185461b349c407b53d305af26": {"province": "ON", "city": "Ottawa", "term": "Winter", "name": "Tristan Kuehn", "title": "Ice Model Research Assistant", "country": "Canada", "industry": "Government Administration", "year": "2014", "termNumber": "1", "employerUrl": "http://weather.gc.ca/canada_e.html", "classYear": "2018", "address": "373 Sussex Drive", "employer": "Environment Canada", "description": ""}}, "9878c7af445a12e7a290a9a5ff6c79ff6a0b4757f0dcad2cd10376b3": {"55bd4065ca67c891c240b6626ee0ee7283afb779bac738d084bd832c": {"province": "Ontario", "city": "Toronto", "term": "Winter", "titlePrevious": "No", "name": "Charles Desouza", "sector": "Dunno? :S", "title": "Senior Software Developer", "country": "Canada", "industry": "Employment", "termNumber": "1", "isWorking": "Yes", "employerUrl": "", "mapLocation": {"lat": 43.647856, "lng": -79.389542, "name": "Careerify Corporation", "address": "81 Peter Street #200, Toronto, ON, Canada"}, "typeOfWork": "Software Development", "year": "2010", "employerPrevious": "No", "employer": "Careerify"}, "b86e5931f575e14a898ce76690cfbce827a24b1f8eaaa5b602e29c0d": {"province": "Ontario", "city": "Waterloo", "term": "Fall", "titlePrevious": "Y", "name": "Charles Desouza", "sector": "Private", "title": "Software Developer", "country": "Canada", "industry": "Tech", "year": "2013", "termNumber": "5", "isWorking": "Y", "employerUrl": "https://mappedin.com/", "classYear": "2015", "address": "151 Charles St. W", "employerPrevious": "Y", "employer": "MappedIn", "description": "Write code, drink coffee and kickass"}, "87dbc43429f97fed6dcd91386c17326bf8edd6531e665b46a9652b05": {"province": "Ontario", "city": "Toronto", "term": "Winter", "name": "Charles Desouza", "sector": "Private", "title": "Senior Software Developer", "country": "Canada", "industry": "Jobs", "termNumber": "4", "isWorking": "Yes", "employerUrl": "", "mapLocation": {"lat": 43.647856, "lng": -79.389542, "name": "Careerify Corporation", "address": "81 Peter Street #200, Toronto, ON, Canada"}, "typeOfWork": "Software fo' Lyfe yo... ", "year": "2012", "employerPrevious": "No", "jobPrevious": "No", "employer": "Careerify", "": ""}}, "a00590d6459064d665efdb5a56f431ca4ae780fbcce839c31028f8e4": {"c994b51170eef25f97921877489bee4cd0db339df0e4b2268ba7a8c7": {"province": "Ontario most of the time probably", "city": "Toronto", "term": "Fall", "name": "Sisun Lee", "sector": "private", "title": "Business Technology Analyst", "country": "Canada most of the time probably", "industry": "management consulting", "termNumber": "5", "isWorking": "Yes", "employerUrl": "http://www.deloitte.com/us/consulting#&panel1-1", "mapLocation": {"lat": 45.420901, "lng": -75.679817, "name": "University of Ottawa", "address": "75 Laurier Avenue East, Ottawa, ON, Canada"}, "typeOfWork": "Strategy consulting for Tech sector. No idea what I'll really do.", "year": "2012", "employerPrevious": "no", "jobPrevious": "no", "employer": "Deloitte Consulting", "": ""}, "97e27f11f5820116c87c2ac9100f440b6938db280443b4ebda94426a": {"province": "Ontario", "city": "Toronto", "term": "Summer", "name": "Sisun Lee", "sector": "Public", "title": "Product Manager Intern", "country": "Canada", "industry": "Social Gaming", "termNumber": "6", "isWorking": "Yes", "employerUrl": "http://zynga.com/", "mapLocation": {"lat": 43.652539, "lng": -79.375613, "name": "Zynga Toronto", "address": "70 Richmond Street East, Toronto, ON, Canada"}, "typeOfWork": "Platform / PM", "year": "2013", "employerPrevious": "No", "jobPrevious": "No", "employer": "Zynga", "": ""}, "87dbc43429f97fed6dcd91386c17326bf8edd6531e665b46a9652b05": {"province": "Ontario", "city": "Toronto", "term": "Winter", "name": "Sisun Lee", "sector": "private", "title": "Market Strategist", "country": "Canada", "industry": "", "termNumber": "4", "isWorking": "", "employerUrl": "", "mapLocation": {"lat": 43.776458, "lng": -79.399339, "name": "Real Estate Marketing (Google, Facebook - Online advertising)", "address": "218 Wilfred Avenue, Toronto, ON, Canada"}, "typeOfWork": "Data analysis related to revenue and business intelligence", "year": "2012", "employerPrevious": "No", "jobPrevious": "No", "employer": "Facebook", "": ""}}, "36afb5b6c36c2a08f04fe0d38cfdae973c8c218847a6b381c3a1c434": {"c994b51170eef25f97921877489bee4cd0db339df0e4b2268ba7a8c7": {"province": "Alberta", "city": "Lancaster Park", "term": "Fall", "name": "Jordan Wyatt", "": "", "title": "Construction Services", "country": "Canada", "industry": "Government - National Defence", "year": "2012", "termNumber": "2", "employerUrl": "", "classYear": "2016", "address": "Building 177, Unit 3", "employer": "Defence Construction Canada", "description": "Worked managing contract of construction of a 30 million dollar Army HQ."}, "97e27f11f5820116c87c2ac9100f440b6938db280443b4ebda94426a": {"province": "Ontario", "city": "Markham", "term": "Summer", "name": "Jordan Wyatt", "": "", "title": "Systems Engineer", "country": "Canada", "industry": "Public Safety Radiocommunication", "year": "2013", "termNumber": "3", "employerUrl": "", "classYear": "2016", "address": "8133 Warden Avenue", "employer": "Motorola Solutions", "description": "Analyzing/Working on backhaul RF systems for city/region/province wide public safety radio installations"}, "5c7a1999689356f08ea72dd40a8fc0b185461b349c407b53d305af26": {"province": "Alberta", "city": "Red Deer", "term": "Winter", "name": "Jordan Wyatt", "title": "Fluid Dynamics Design/Field Operator", "country": "Canada", "industry": "Oil & Gas", "year": "2014", "termNumber": "4", "employerUrl": "http://hurricaneenergy.ca/", "classYear": "2016", "address": "R.R. #3", "employer": "Hurricane Energy Services Ltd.", "description": "Operating airborne contaminant management systems in the field to limit silica sand exposure to people working on oil well sites. Applied fluid dynamics principles to devise permanent, efficient system for dust control"}, "87dbc43429f97fed6dcd91386c17326bf8edd6531e665b46a9652b05": {"province": "Ontario", "city": "Kanata", "term": "Winter", "name": "Jordan Wyatt", "title": "Qualification Engineer", "country": "Canada", "industry": "Telecommunication", "year": "2012", "termNumber": "1", "employerUrl": "", "classYear": "2016", "address": "600 March Road", "employer": "Alcatel-Lucent", "description": "Lab testing and product qualification management on backhaul DSL equipment"}}, "6a4122500cb7d2c9296ab86945f427a03fc8afa0164e73f95f196fa3": {"c994b51170eef25f97921877489bee4cd0db339df0e4b2268ba7a8c7": {"province": "California", "city": "Palo Alto", "term": "Fall", "name": "Teddy Antony", "sector": "Private", "title": "Process Engineer", "country": "USA", "industry": "", "termNumber": "5", "isWorking": "Yes", "employerUrl": "http://www.teslamotors.com/about", "mapLocation": {"lat": 37.394181, "lng": -122.149858, "name": "Tesla Motors", "address": "3500 Deer Creek Road, Palo Alto, CA, United States"}, "typeOfWork": "Automotive", "year": "2012", "employerPrevious": "No", "jobPrevious": "No", "employer": "Tesla Motors", "": ""}, "97e27f11f5820116c87c2ac9100f440b6938db280443b4ebda94426a": {"province": "California", "city": "Fremont", "term": "Summer", "name": "Teddy Antony", "sector": "Private", "title": "Vehicle Engineering - Model X Development", "country": "USA", "industry": "Automotive", "termNumber": "6", "isWorking": "Yes", "employerUrl": "http://www.teslamotors.com/en_CA/", "mapLocation": {"lat": 37.493468, "lng": -121.945306, "name": "Tesla Motors", "address": "45500 Fremont Boulevard, Fremont, CA, United States"}, "typeOfWork": "Electrical - Mechanical Design ", "year": "2013", "employerPrevious": "Yes", "jobPrevious": "No", "employer": "Tesla Motors", "": "I need to visit you and meet Elon in person. -Tom"}, "87dbc43429f97fed6dcd91386c17326bf8edd6531e665b46a9652b05": {"province": "Ontario", "city": "Cambridge", "term": "Winter", "name": "Teddy Antony", "sector": "", "title": "Manufacturing Engineering", "country": "Canada", "industry": "", "termNumber": "4", "isWorking": "Yes", "employerUrl": "", "mapLocation": {"lat": 43.416981, "lng": -80.370714, "name": "Toyota Motor Manufacturing Canada Inc.", "address": "1055 Fountain Street North, Cambridge, ON, Canada"}, "typeOfWork": "", "year": "2012", "employerPrevious": "No", "jobPrevious": "No", "employer": "Toyota Motor Manufacturing Canada Inc", "": ""}}, "2de424ada4bdcd178a343320e3b3d9034f03da9e62825b9fd625a286": {"c994b51170eef25f97921877489bee4cd0db339df0e4b2268ba7a8c7": {"province": "Ontario", "city": "Waterloo", "term": "Fall", "name": "Victor Vucicevich", "": "", "title": "Applications Developer", "country": "Canada", "industry": "Mobile and Web applications", "year": "2012", "termNumber": "2", "employerUrl": "", "classYear": "2016", "address": "50 Caroline St.", "employer": "Rebellion Media", "description": "Made a bunch of different apps based on designs"}, "97e27f11f5820116c87c2ac9100f440b6938db280443b4ebda94426a": {"province": "Ontario", "city": "Waterloo", "term": "Summer", "name": "Victor Vucicevich", "": "", "title": "Android Application Developer", "country": "Canada", "industry": "Social Networks and messaging", "year": "2013", "termNumber": "3", "employerUrl": "", "classYear": "2016", "address": "420 Weber St. North", "employer": "Kik Interactive", "description": "Was one of two developers on the Android application, Kik Messenger. Implemented a bunch of fancy dancy features that 80 million users now use."}, "87dbc43429f97fed6dcd91386c17326bf8edd6531e665b46a9652b05": {"province": "Ontario", "city": "Kitchener", "term": "Winter", "name": "Victor Vucicevich", "title": "Applications Developer", "country": "Canada", "industry": "Mobile and Web applications", "year": "2012", "termNumber": "1", "employerUrl": "", "classYear": "2016", "address": "151 Charles St", "employer": "Communitech Apps Factory", "description": "Wrote prototype mobile and web applications to client specifications"}}, "0182aa0328ee43da90ea8e4ef30e6a447f23da8980afc721a1982974": {"c994b51170eef25f97921877489bee4cd0db339df0e4b2268ba7a8c7": {"province": "California", "city": "Mountain View", "term": "Fall", "name": "Senduran Indrakumar", "sector": "Private", "title": "Software Engineering Intern", "country": "USA", "industry": "Robotics", "termNumber": "5", "isWorking": "Yes", "employerUrl": "http://press.linkedin.com/about", "mapLocation": {"lat": 37.42332, "lng": -122.071009, "name": "LinkedIn Corporation", "address": "2029 Stierlin Court, Mountain View, CA, United States"}, "typeOfWork": "Android And Robots", "year": "2012", "employerPrevious": "no", "jobPrevious": "no", "employer": "LinkedIn", "": ""}}, "81fb25f5ae42bf52bd1e3ec583e87e6b5cdb25c239490ccf42642178": {"5c7a1999689356f08ea72dd40a8fc0b185461b349c407b53d305af26": {"province": "ON", "city": "Kitchener", "term": "Winter", "name": "Jerome Couture", "title": "Software Engineer", "country": "Canada", "industry": "Computer Networking", "year": "2014", "termNumber": "4", "employerUrl": "http://auvik.com/", "classYear": "2016", "address": "51 Breithaupt Street", "employer": "Auvik Networks", "description": "play mahjong all day"}}, "c7ebebf1290670e2fea5412686d5fb49ec9f97022cb4b688d49ba2f8": {"87dbc43429f97fed6dcd91386c17326bf8edd6531e665b46a9652b05": {"province": "British Columbia", "city": "Vancouver", "term": "Winter", "name": "Canmanie Ponnambalam", "title": "Software Developer", "country": "Canada", "industry": "Mining & Metals", "year": "2012", "termNumber": "1", "employerUrl": "", "classYear": "2016", "address": "580 Hornby St.", "employer": "Infomine", "description": "Web development (.NET)"}}, "cdfc639381e657ddaec7801ccf9ac3a799b02260d174ce9d40111d4b": {"87dbc43429f97fed6dcd91386c17326bf8edd6531e665b46a9652b05": {"province": "California", "city": "Cupertino", "term": "Winter", "name": "Hans Vermeulen", "sector": "Private", "title": "iPhone Quality Team Intern", "country": "USA", "industry": "Manufactoring", "termNumber": "4", "isWorking": "Yes", "employerUrl": "", "mapLocation": {"lat": 37.3317929, "lng": -122.0295837, "name": "Apple Inc.", "address": "Apple Inc., 1 Infinite Loop, Cupertino, CA 95014, USA"}, "typeOfWork": "Project Management", "year": "2012", "employerPrevious": "No", "jobPrevious": "No", "employer": "Apple", "": ""}}, "9eef019d7e1c81e541fc78ca8c4578ceff9b8ac08d9f49a8f5fc0def": {"87dbc43429f97fed6dcd91386c17326bf8edd6531e665b46a9652b05": {"province": "Ontario", "city": "Waterloo", "term": "Winter", "name": "Hans Kao", "sector": "Private", "title": "Electronics Designer Associate", "country": "Canada", "industry": "Crumbling", "termNumber": "4", "isWorking": "Yes", "employerUrl": "", "mapLocation": {"lat": 43.479674, "lng": -80.543148, "name": "Research In Motion", "address": "176 Columbia Street West, Waterloo, ON, Canada"}, "typeOfWork": "Anything goes", "year": "2012", "employerPrevious": "no", "jobPrevious": "no", "employer": "Research In Motion", "": ""}}, "f750703ad0e99e41c5acfb35d388c31133c20a2f8e8cb75f4a370146": {"c994b51170eef25f97921877489bee4cd0db339df0e4b2268ba7a8c7": {"province": "Ontario", "city": "Cambridge", "term": "Fall", "name": "Chris Menezes", "sector": "Private", "title": "Software Engineer Intern", "country": "Canada", "industry": "Space", "termNumber": "5", "isWorking": "Yes", "employerUrl": "http://www.exactearth.com/", "mapLocation": {"lat": 43.411863, "lng": -80.315437, "name": "Exactearth Ltd", "address": "60 Struck Crt, Cambridge, ON, Canada"}, "typeOfWork": "Software dev/signal processing", "year": "2012", "employerPrevious": "No", "jobPrevious": "No", "employer": "exactEarth", "": ""}, "87dbc43429f97fed6dcd91386c17326bf8edd6531e665b46a9652b05": {"province": "California", "city": "Palo Alto", "term": "Winter", "name": "Chris Menezes", "sector": "", "title": "Systems Engineer", "country": "USA", "industry": "", "termNumber": "4", "isWorking": "", "employerUrl": "", "mapLocation": {"lat": 37.4418834, "lng": -122.1430195, "name": "Palo Alto", "address": "Palo Alto, CA, USA"}, "typeOfWork": "", "year": "2012", "employerPrevious": "", "jobPrevious": "", "employer": "SkyGrid", "": ""}}, "56fa8f352de7fade747ffd9c4e1ee6908e8ffd7c5c59d1a62bd2fd66": {"c994b51170eef25f97921877489bee4cd0db339df0e4b2268ba7a8c7": {"province": "???", "city": "Tokyo", "term": "Fall", "name": "Matt Ng", "sector": "", "title": "???", "country": "Japan", "industry": "Engineering?", "termNumber": "5", "isWorking": "Ya", "employerUrl": "http://www.ctie.co.jp/english/", "mapLocation": {"lat": 35.685198, "lng": 139.788997, "name": "\uff08\u682a\uff09\u5efa\u8a2d\u6280\u8853\u7814\u7a76\u6240", "address": "\u65e5\u672c\u6a4b\u6d5c\u753aF\u30bf\u30ef\u30fc, 3 Chome-\uff12\uff11\u2212\uff11 Nihonbashihamacho, Chuo, Tokyo, Japan"}, "typeOfWork": "????", "year": "2012", "employerPrevious": "no", "jobPrevious": "no", "employer": "CTI Engineering Co. Ltd", "": ""}, "97e27f11f5820116c87c2ac9100f440b6938db280443b4ebda94426a": {"province": "Cali", "city": "Santa Clara", "term": "Summer", "name": "Matt Ng", "sector": "", "title": "Software Engineer Intern", "country": "Where do you think?", "industry": "", "termNumber": "6", "isWorking": "Yes", "employerUrl": "http://www.nvidia.com/content/global/global.php", "mapLocation": {"lat": 37.370106, "lng": -121.964207, "name": "Nvidia Corporation", "address": "2701 San Tomas Expressway, Santa Clara, CA, United States"}, "typeOfWork": "Sitting in front a computer all day", "year": "2013", "employerPrevious": "No", "jobPrevious": "No", "employer": "NVIDIA", "": ""}}, "81c718d9dfd25e742700e3275f9757f47b667fbc23d66afd26aebb90": {"55bd4065ca67c891c240b6626ee0ee7283afb779bac738d084bd832c": {"province": "Ontario", "city": "Waterloo", "term": "Winter", "titlePrevious": "No", "name": "Ziyad Mir", "sector": "Private", "title": "Project Coordinator", "country": "Canada", "industry": "Telecommunications", "termNumber": "1", "isWorking": "Yes", "employerUrl": "", "mapLocation": {"lat": 43.479674, "lng": -80.543148, "name": "Research In Motion", "address": "176 Columbia Street West, Waterloo, ON, Canada"}, "typeOfWork": "Project Management", "year": "2010", "employerPrevious": "No", "employer": "Research In Motion"}, "c994b51170eef25f97921877489bee4cd0db339df0e4b2268ba7a8c7": {"province": "Washington", "city": "Seattle", "term": "Fall", "name": "Ziyad Mir", "sector": "Private", "title": "Software Engineering Intern", "country": "USA", "industry": "eLearning", "termNumber": "5", "isWorking": "Yes", "employerUrl": "http://www.google.com/intl/en/about/", "mapLocation": {"lat": 47.648662, "lng": -122.350546, "name": "Google Seattle", "address": "651 North 34th Street, Seattle, WA, United States"}, "typeOfWork": "Software", "year": "2012", "employerPrevious": "No", "jobPrevious": "No", "employer": "Google", "": ""}, "b0fc93f797e918f3cc741493cebf1235abb9a4e6d61de0158f793521": {"province": "California", "city": "San Diego", "term": "Summer", "name": "Ziyad Mir", "sector": "Private", "title": "Software Engineering Intern", "country": "USA", "industry": "Telecommunications", "termNumber": "3", "isWorking": "Yes", "employerUrl": "", "mapLocation": {"lat": 32.895732, "lng": -117.195861, "name": "Qualcomm Incorporated", "address": "5775 Morehouse Drive, San Diego, CA, United States"}, "typeOfWork": "Software Engineering", "year": "2011", "employerPrevious": "No", "jobPrevious": "No", "employer": "Qualcomm"}, "97e27f11f5820116c87c2ac9100f440b6938db280443b4ebda94426a": {"province": "California", "city": "Mountain View", "term": "Summer", "name": "Ziyad Mir", "sector": "Public", "title": "Associate Product Manager Intern", "country": "USA", "industry": "Software", "termNumber": "6", "isWorking": "Yes", "employerUrl": "https://www.google.com/", "mapLocation": {"lat": 37.422, "lng": -122.084058, "name": "Googleplex", "address": "1600 Amphitheatre Parkway, Mountain View, CA, United States"}, "typeOfWork": "Software", "year": "2013", "employerPrevious": "Yes", "jobPrevious": "No", "employer": "Google", "": ""}, "87dbc43429f97fed6dcd91386c17326bf8edd6531e665b46a9652b05": {"province": "California", "city": "Mountain View", "term": "Winter", "name": "Ziyad Mir", "sector": "", "title": "Software Engineer", "country": "USA", "industry": "", "termNumber": "4", "isWorking": "", "employerUrl": "", "mapLocation": {"lat": 37.42332, "lng": -122.071009, "name": "LinkedIn Corporation", "address": "2029 Stierlin Court, Mountain View, CA, United States"}, "typeOfWork": "", "year": "2012", "employerPrevious": "", "jobPrevious": "", "employer": "LinkedIn", "": ""}}, "bc5b779711a5a2816055afce28953b042d5e52415027d4843026570e": {"87dbc43429f97fed6dcd91386c17326bf8edd6531e665b46a9652b05": {"province": "Ontario", "city": "Toronto", "term": "Winter", "name": "Hojoon Lee", "sector": "Crown", "title": "Performance and Capacity Co-op", "country": "Canada", "industry": "Lottery and Casinos", "termNumber": "4", "isWorking": "Yes", "employerUrl": "", "mapLocation": {"lat": 43.656216, "lng": -79.381959, "name": "OLG Prize Centre", "address": "20 Dundas Street West, Toronto, ON, Canada"}, "typeOfWork": "", "year": "2012", "employerPrevious": "No", "jobPrevious": "No", "employer": "OLG", "": ""}}, "dc2e7b05a0eff234da1dd3ca3b2325d944a6707f04325d30d4fc666c": {"87dbc43429f97fed6dcd91386c17326bf8edd6531e665b46a9652b05": {"province": "Ontario", "city": "Missisauga", "term": "Winter", "name": "Henry Poon", "sector": "", "title": "Renewable Energy Building Systems Engineer", "country": "Canada", "industry": "Renewable Energy", "termNumber": "4", "isWorking": "Yes", "employerUrl": "", "mapLocation": {"lat": 43.650446, "lng": -79.645614, "name": "Frendel Kitchens Limited", "address": "1350 Shawson Drive, Mississauga, ON, Canada"}, "typeOfWork": "Renewable Energy - electrical/mechanical design", "year": "2012", "employerPrevious": "No", "jobPrevious": "No", "employer": "PCL Constructors", "": ""}}, "767f910f8097843884a3525557c5822368ff8d906c8c82d92d623ccc": {"271fca6f897eba601074c62b07eabe30b0a837dfcd45536a1ad55dd0": {"province": "ON", "city": "Waterloo", "term": "Winter", "titlePrevious": "N", "name": "Tessa Alexanian", "sector": "Public", "title": "Assistant Information Systems Analyst", "country": "Canada", "industry": "Information Technology/IT", "year": "2011", "termNumber": "1", "isWorking": "Y", "employerUrl": "http://uwaterloo.ca", "classYear": "2015", "mapLocation": {"lat": 43.472285, "lng": -80.544858, "name": "University of Waterloo", "address": "200 University Avenue West, Waterloo, ON, Canada"}, "address": "", "employerPrevious": "N", "employer": "University of Waterloo", "description": "Created dynamic HTML forms using Javascript and AJAX and developed a CSS standard for all HTML forms. Conducted interviews with users of my team's software across campus and then implemented requested changes. "}, "b86e5931f575e14a898ce76690cfbce827a24b1f8eaaa5b602e29c0d": {"province": "", "city": "", "term": "Fall", "titlePrevious": "", "name": "Tessa Alexanian", "sector": "", "title": "", "country": "", "industry": "", "year": "2013", "termNumber": "5", "isWorking": "N", "employerUrl": "", "classYear": "2015", "address": "", "employerPrevious": "", "employer": "", "description": ""}, "2bbb78e381ee07e7f8422f2cf90f096602f38e6a73cec9598daf4704": {"province": "ON", "city": "Waterloo", "term": "Summer", "titlePrevious": "N", "name": "Tessa Alexanian", "sector": "Public", "title": "Image Processing Research Assisstant", "country": "Canada", "industry": "Research", "year": "2012", "termNumber": "3", "isWorking": "Y", "employerUrl": "http://uwaterloo.ca", "classYear": "2015", "mapLocation": {"lat": 43.472285, "lng": -80.544858, "name": "University of Waterloo", "address": "200 University Avenue West, Waterloo, ON, Canada"}, "address": "", "employerPrevious": "N", "employer": "University of Waterloo", "description": "Primary developer on a research project investigating the automatic annotation of low-resolution video of horse races. Implemented in MATLAB a variety of object detection algorithms."}, "466b3a3a913da2d9050efc62a8f1c9ad02ebbae5c84cd2c1c7bdf914": {"province": "ON", "city": "Toronto", "term": "Winter", "titlePrevious": "N", "name": "Tessa Alexanian", "sector": "Public", "title": "Bioinformatics Assistant", "country": "Canada", "industry": "Hospital/Health Services", "year": "2013", "termNumber": "4", "isWorking": "Y", "employerUrl": "http://www.uhn.ca/", "classYear": "2015", "mapLocation": {"lat": 43.653547, "lng": -79.406036, "name": "Toronto Western Hospital", "address": "399 Bathurst Street, Toronto, ON, Canada"}, "address": "", "employerPrevious": "N", "employer": "University Health Network", "description": "Developed a pipeline for processing and analysis of next-generation sequencing data in a clinical and research context. Worked with a number of established bioinformatics tools to determine best practices for analysis of various kinds of\u00a0genetic data."}, "0679b25b14f91f4bb1aa1249d91cfb1450f1466491f90fc8a1c86fb2": {"province": "ON", "city": "Ottawa", "term": "Fall", "titlePrevious": "N", "name": "Tessa Alexanian", "sector": "Public", "title": "Ice Model Research Assistant", "country": "Canada", "industry": "Environmental Services", "year": "2011", "termNumber": "2", "isWorking": "Y", "employerUrl": "http://www.ec.gc.ca/glaces-ice/", "classYear": "2015", "mapLocation": {"lat": 45.427719, "lng": -75.667555, "name": "Environment Canada", "address": "335 River Rd, Gloucester, ON, Canada"}, "address": "", "employerPrevious": "N", "employer": "Environment Canada", "description": "Designed a texture analysis algorithm to help classify radar images of sea ice; implemented it using Fortran and C++. Assimilated new kinds of data into a suite of linux scripts used by meterologists to predict future ice conditions. Maintained a Microsoft Access database used for a meterological linear regression model, improving its UI and writing a comprehensive user manual."}}, "0418fa7b9ee703a9e76d3f7b9582559385112d83122de71dfb9b902e": {"c994b51170eef25f97921877489bee4cd0db339df0e4b2268ba7a8c7": {"province": "Ontario", "city": "Ottawa", "term": "Fall", "name": "Andrew Illmann", "": "", "title": "Programmer/Analyst", "country": "Canada", "industry": "Information Techonolgy and Services", "year": "2012", "termNumber": "2", "employerUrl": "", "classYear": "2016", "address": "400 March Road", "employer": "In-Touch Insight Systems", "description": ""}, "97e27f11f5820116c87c2ac9100f440b6938db280443b4ebda94426a": {"province": "Ontario", "city": "Toronto", "term": "Summer", "name": "Andrew Illmann", "": "", "title": "Technical Systems Analyst", "country": "Canada", "industry": "Investment Banking", "year": "2013", "termNumber": "3", "employerUrl": "", "classYear": "2016", "address": "155 Wellington Street", "employer": "RBC Capital Markets", "description": ""}, "5c7a1999689356f08ea72dd40a8fc0b185461b349c407b53d305af26": {"province": "NY", "city": "New York", "term": "Winter", "name": "Andrew Illmann", "title": "Management Consultant Trainee", "country": "USA", "industry": "Information Technology and Services", "year": "2014", "termNumber": "4", "employerUrl": "http://www.rulefinancial.com/", "classYear": "2016", "address": "28 West 44th Street", "employer": "Rule Financial", "description": ""}, "87dbc43429f97fed6dcd91386c17326bf8edd6531e665b46a9652b05": {"province": "Ontario", "city": "Toronto", "term": "Winter", "name": "Andrew Illmann", "title": "Quality Assurance Analyst", "country": "Canada", "industry": "Computer Software", "year": "2012", "termNumber": "1", "employerUrl": "", "classYear": "2016", "address": "10 York Mills Road", "employer": "NexJ Systems Inc.", "description": ""}}, "afc57257e1652b6d94f20f942450c856091668139bea3b72b7def825": {"87dbc43429f97fed6dcd91386c17326bf8edd6531e665b46a9652b05": {"province": "Ontario", "city": "Toronto", "term": "Winter", "name": "Matthew Chong", "sector": "Private", "title": "Software Developer", "country": "Canada", "industry": "Finance", "termNumber": "4", "isWorking": "Yes", "employerUrl": "", "mapLocation": {"lat": 43.64843, "lng": -79.377709, "name": "SGGG Fund Services Inc.", "address": "60 Yonge Street #1200, Toronto, ON, Canada"}, "typeOfWork": "Software", "year": "2012", "employerPrevious": "No", "jobPrevious": "No", "employer": "SGGG Portfolio Systems", "": ""}}, "52fd700f8cbdf2567cbca4d8cbc1190ebf492efec918884dd251f62e": {"5c7a1999689356f08ea72dd40a8fc0b185461b349c407b53d305af26": {"province": "ON", "city": "Toronto", "term": "Winter", "name": "Cassandra Chan", "title": "Project Coordinator", "country": "Canada", "industry": "Hospital & Healthcare", "year": "2014", "termNumber": "1", "employerUrl": "http://www.stmichaelshospital.com/", "classYear": "2018", "address": "30 Bond Street", "employer": "St. Michael's Hospital", "description": ""}}, "768b3fc7c35cbad7e59ef5360eaab5809f10ecb011a61886e4e50159": {"c994b51170eef25f97921877489bee4cd0db339df0e4b2268ba7a8c7": {"province": "Quebec", "city": "Montreal", "term": "Fall", "name": "Tom Sun", "sector": "Private", "title": "UI Designer", "country": "Canada", "industry": "Enterprise Software", "termNumber": "5", "isWorking": "Yes", "employerUrl": "http://www.jonar.com/", "mapLocation": {"lat": 45.487691, "lng": -73.737923, "name": "Jonar Systems Inc", "address": "5645, ch Saint-Fran\u00e7ois, Saint-Laurent, QC, Canada"}, "typeOfWork": "UI Design", "year": "2012", "employerPrevious": "No", "jobPrevious": "No", "employer": "Jonar Systems", "": "It should be HiDesign"}, "b0fc93f797e918f3cc741493cebf1235abb9a4e6d61de0158f793521": {"province": "Ontario", "city": "Kitchener", "term": "Summer", "name": "Tom Sun", "sector": "Private", "title": "BI/SQL Developer", "country": "Canada", "industry": "Enterprise Software", "termNumber": "3", "isWorking": "Yes", "employerUrl": "", "mapLocation": {"lat": 43.475988, "lng": -80.552204, "name": "OpenText Corporation", "address": "275 South Service Rd, Waterloo, ON, Canada"}, "typeOfWork": "Database Development", "year": "2011", "employerPrevious": "No", "jobPrevious": "No", "employer": "Open Text Corporation"}, "97e27f11f5820116c87c2ac9100f440b6938db280443b4ebda94426a": {"province": "", "city": "San Francisco", "term": "Summer", "name": "Tom Sun", "sector": "", "title": "Software Engineer Intern", "country": "", "industry": "", "termNumber": "6", "isWorking": "Yes", "employerUrl": "http://www.appdirect.com/", "mapLocation": {"lat": 37.792669, "lng": -122.405117, "name": "AppDirect", "address": "650 California Street, San Francisco, CA, United States"}, "typeOfWork": "", "year": "2013", "employerPrevious": "", "jobPrevious": "", "employer": "AppDirect", "": ""}, "87dbc43429f97fed6dcd91386c17326bf8edd6531e665b46a9652b05": {"province": "Ontario", "city": "Toronto", "term": "Winter", "name": "Tom Sun", "sector": "Private", "title": "Professional Service Consultant", "country": "Canada", "industry": "Enterprise Software", "termNumber": "4", "isWorking": "Yes", "employerUrl": "", "mapLocation": {"lat": 43.744409, "lng": -79.406335, "name": "NexJ Systems Inc.", "address": "Suite 700, 10 York Mills Road, Toronto, ON, Canada"}, "typeOfWork": "Consulting", "year": "2012", "employerPrevious": "", "jobPrevious": "", "employer": "NexJ Systems Inc.", "": ""}}, "2f01f3a731c0f1eb295280069ec5328de64df043220f4be4a71d8ce6": {"55bd4065ca67c891c240b6626ee0ee7283afb779bac738d084bd832c": {"province": "Ontario", "city": "Toronto", "term": "Winter", "titlePrevious": "No", "name": "Herman Won", "sector": "Private", "title": "Production Engineer", "country": "Canada", "industry": "Pharmaceutical", "termNumber": "1", "isWorking": "Yes", "employerUrl": "", "mapLocation": {"lat": 43.729476, "lng": -79.433901, "name": "Apotex Centre Jewish Home For The Aged And The Louis And Leah Posluns Centre For Stroke And Cognitio", "address": "3560 Bathurst Street, Toronto, ON, Canada"}, "typeOfWork": "Continual Upgrades", "year": "2010", "employerPrevious": "No", "employer": "Apotex"}}, "1cace9c8f141d21b49a22a067e6fee4ca55b85bff7dc0bda45d9806c": {"87dbc43429f97fed6dcd91386c17326bf8edd6531e665b46a9652b05": {"province": "Ontario", "city": "Toronto", "term": "Winter", "name": "Sharon Leung", "sector": "", "title": "Application Support Analyst", "country": "Canada", "industry": "IT", "termNumber": "4", "isWorking": "Yes", "employerUrl": "", "mapLocation": {"lat": 43.643257, "lng": -79.38224, "name": "PwC", "address": "18 York Street, Toronto, ON, Canada"}, "typeOfWork": "IT/tech/general support", "year": "2012", "employerPrevious": "No", "jobPrevious": "No", "employer": "PWC", "": ""}}, "9ce09fee2a446c4ee8349ac8410de42ab73a1ca625ec1852c1f626f8": {"5c7a1999689356f08ea72dd40a8fc0b185461b349c407b53d305af26": {"province": "ON", "city": "Waterloo", "term": "Winter", "name": "Yang Chen", "title": "Research Assistant", "country": "Canada", "industry": "Higher Education/Acadamia", "year": "2014", "termNumber": "1", "employerUrl": "http://uwaterloo.a", "classYear": "2018", "address": "200 University Ave W", "employer": "University of Waterloo", "description": ""}}, "01e042d08d41e8eaca7724d9d8a4f7f556f91f75d1982523fb7a731d": {"97e27f11f5820116c87c2ac9100f440b6938db280443b4ebda94426a": {"province": "Ontario", "city": "Toronto", "term": "Summer", "name": "Nathan Yim", "": "", "title": "QA/SEIT", "country": "Canada", "industry": "Computer Games", "year": "2013", "termNumber": "2", "employerUrl": "", "classYear": "2016", "address": "70 Richmond Street East", "employer": "Zynga Inc.", "description": "QA lead on new project: devise test strategy and tasks, help in the understanding and development of user/functional requirements, write comprehensive test suite, testing"}, "5c7a1999689356f08ea72dd40a8fc0b185461b349c407b53d305af26": {"province": "California", "city": "Palo Alto", "term": "Winter", "name": "Nathan Yim", "title": "Software Design Engineer", "country": "USA", "industry": "Computer Software", "year": "2014", "termNumber": "3", "employerUrl": "a9.com", "classYear": "2016", "address": "130 Lytton Ave", "employer": "A9.com", "description": ""}, "87dbc43429f97fed6dcd91386c17326bf8edd6531e665b46a9652b05": {"province": "Ontario", "city": "Toronto", "term": "Winter", "name": "Nathan Yim", "title": "Mobile Test Engineer", "country": "Canada", "industry": "Computer Software", "year": "2012", "termNumber": "1", "employerUrl": "", "classYear": "2016", "address": "69 Yonge Street", "employer": "Xtreme Labs Inc.", "description": "QA testing, MySQL database improvements"}}, "d806aa489e854dadc449dc16d4c4317f1f8b1e0902f9cca268ad6ac0": {"5c7a1999689356f08ea72dd40a8fc0b185461b349c407b53d305af26": {"province": "BC", "city": "Langley", "term": "Winter", "name": "Ian Easterbrook", "title": "Electrical Engineer", "country": "Canada", "industry": "Hydro Electric Energy", "year": "2014", "termNumber": "4", "employerUrl": "http://www.bchydro.com/index.html", "classYear": "2016", "address": "", "employer": "BC Hyrdo", "description": "Alstom software"}}, "bb64ac5ff47b01934ad439d03cb3a4c13d2eaad9e463f73aae310282": {"87dbc43429f97fed6dcd91386c17326bf8edd6531e665b46a9652b05": {"province": "Ontario", "city": "Toronto", "term": "Winter", "name": "Vithuran Balasubramaniam", "sector": "", "title": "Software Developer", "country": "Canada", "industry": "", "termNumber": "4", "isWorking": "", "employerUrl": "", "mapLocation": {"lat": 43.647208, "lng": -79.379381, "name": "Cisco Systems Inc", "address": "181 Bay, Toronto, ON, Canada"}, "typeOfWork": "", "year": "2012", "employerPrevious": "", "jobPrevious": "", "employer": "Cisco Systems", "": ""}}, "326b73a7b70c5584af486aad10a5d9d07ca6426352dcb3cf7ddebfc9": {"c994b51170eef25f97921877489bee4cd0db339df0e4b2268ba7a8c7": {"province": "Ontario", "city": "Kitchener", "term": "Fall", "name": "Nick Mostowich", "": "", "title": "Applications Developer", "country": "Canada", "industry": "Mobile and Web applications", "year": "2012", "termNumber": "2", "employerUrl": "", "classYear": "2016", "address": "151 Charles St", "employer": "Communitech Apps Factory", "description": "Wrote prototype mobile and web applications to client specifications"}, "97e27f11f5820116c87c2ac9100f440b6938db280443b4ebda94426a": {"province": "California", "city": "Redwood City", "term": "Summer", "name": "Nick Mostowich", "": "", "title": "Software Engineering Intern, Web", "country": "USA", "industry": "Productivity Software", "year": "2013", "termNumber": "3", "employerUrl": "", "classYear": "2016", "address": "350 Walnut St", "employer": "Evernote Co.", "description": "Worked as a full stack developer on the web team. Wrote the PDF renderer for the web, slayed bugs, wrote a controller and view for an upcoming proprietary e-commerce system"}, "87dbc43429f97fed6dcd91386c17326bf8edd6531e665b46a9652b05": {"province": "Ontario", "city": "Toronto", "term": "Winter", "name": "Nick Mostowich", "title": "Mobile And Cloud Research and Development Assistant", "country": "Canada", "industry": "IT", "year": "2012", "termNumber": "1", "employerUrl": "", "classYear": "2016", "address": "606 Magnetic Drive", "employer": "Tenet Computer Group", "description": "Prototyped and reported on upcoming technology including NFC, Augmented Reality, and Kinect"}}, "c492d099eb0ef44d50e37c027f423477f1ef9f71c91903fb5263c85f": {"5c7a1999689356f08ea72dd40a8fc0b185461b349c407b53d305af26": {"province": "ON", "city": "Toronto", "term": "Winter", "name": "Ryan Ong", "title": "Software Developer", "country": "Canada", "industry": "Computer Software, Medical", "year": "2014", "termNumber": "4", "employerUrl": "http://oicr.on.ca/", "classYear": "2016", "address": "101 College Street, Suite 800", "employer": "Ontario Institute for Cancer Research", "description": "Software for Genetic Sequencing Production"}}, "3fba69c2e52750b1bca75a95a8cda4fd6dac6563d3f4a14414764b04": {"5c7a1999689356f08ea72dd40a8fc0b185461b349c407b53d305af26": {"province": "ON", "city": "Toronto", "term": "Winter", "name": "Laura Ospina", "title": "Systems Analyst", "country": "Canada", "industry": "Financial Services", "year": "2014", "termNumber": "4", "employerUrl": "http://www.otpp.com/", "classYear": "2016", "address": "", "employer": "Ontario Teachers Pension Plan", "description": ""}, "87dbc43429f97fed6dcd91386c17326bf8edd6531e665b46a9652b05": {"province": "Ontario", "city": "Toronto", "term": "Winter", "name": "Laura Ospina", "title": "Database programer", "country": "Canada", "industry": "", "year": "2012", "termNumber": "1", "employerUrl": "", "classYear": "2016", "address": "", "employer": "Ministry of Finance", "description": "Handling databases and economic series with economic indicator used for government reporting and analysis"}}, "138202a5dc08e074b416e064cff1d480ae8eb7b1f1f315f2ee6f0346": {"c994b51170eef25f97921877489bee4cd0db339df0e4b2268ba7a8c7": {"province": "ONtario", "city": "Toronto", "term": "Fall", "name": "Ethan Li", "": "", "title": "eBusiness Specialist", "country": "Canada", "industry": "Financial Services", "year": "2012", "termNumber": "2", "employerUrl": "", "classYear": "2016", "address": "100 King St W", "employer": "BMO InvestorLine", "description": ""}, "97e27f11f5820116c87c2ac9100f440b6938db280443b4ebda94426a": {"province": "Ontario", "city": "Toronto", "term": "Summer", "name": "Ethan Li", "": "", "title": "User Experience Analyst", "country": "Canada", "industry": "Financial Services", "year": "2013", "termNumber": "3", "employerUrl": "", "classYear": "2016", "address": "20 King St W", "employer": "CIBC", "description": "CSS on PRPC, Usability Testing | Morae, User Experience Design | Axure"}, "5c7a1999689356f08ea72dd40a8fc0b185461b349c407b53d305af26": {"province": "ON", "city": "Kitchener", "term": "Winter", "name": "Ethan Li", "title": "Web and eBusiness Developer", "country": "Canada", "industry": "Financial Services", "year": "2014", "termNumber": "4", "employerUrl": "http://www.sunlife.ca/", "classYear": "2016", "address": "227 King St S", "employer": "Sun Life Financial", "description": ""}, "87dbc43429f97fed6dcd91386c17326bf8edd6531e665b46a9652b05": {"province": "Ontario", "city": "Markham", "term": "Winter", "name": "Ethan Li", "title": "Junior Programmer", "country": "Canada", "industry": "Information Technology and Services", "year": "2012", "termNumber": "1", "employerUrl": "", "classYear": "2016", "address": "20 Amber St", "employer": "Infomax Technologies Corp", "description": "Web development (ASP.NET/C#.NET)"}}, "25d4c471224fc4ecec6f32420681115333885d2ca3739ce27cd07ec3": {"5c7a1999689356f08ea72dd40a8fc0b185461b349c407b53d305af26": {"province": "ON", "city": "Oshawa", "term": "Winter", "name": "Matt Robichaud", "title": "Student Engineer", "country": "Canada", "industry": "Transportation/Trucking", "year": "2014", "termNumber": "1", "employerUrl": "http://www.mackiegroup.com/", "classYear": "2018", "address": "933 Bloor St W", "employer": "Mackie Group", "description": ""}}, "6bb09a269e6fd7ba817348f2bee0532d1ebbff1fbe384a62df8f2452": {"97e27f11f5820116c87c2ac9100f440b6938db280443b4ebda94426a": {"province": "Ontario", "city": "Oakville", "term": "Summer", "name": "Veronica Vermeulen", "sector": "", "title": "Business Analyst", "country": "Canada", "industry": "", "termNumber": "6", "isWorking": "Yes", "employerUrl": "http://www.ford.ca", "mapLocation": {"lat": 43.490833, "lng": -79.670809, "name": "Ford Motor Company Of Canada Limited", "address": "The Canadian Road, Oakville, ON, Canada"}, "typeOfWork": "", "year": "2013", "employerPrevious": "No", "jobPrevious": "No", "employer": "Ford", "": ""}, "87dbc43429f97fed6dcd91386c17326bf8edd6531e665b46a9652b05": {"province": "Nova Scotia", "city": "Truro", "term": "Winter", "name": "Veronica Vermeulen", "sector": "", "title": "TBD", "country": "Canada", "industry": "", "termNumber": "4", "isWorking": "", "employerUrl": "", "mapLocation": {"lat": 45.3657733, "lng": -63.28694069999999, "name": "Truro", "address": "Truro, NS, Canada"}, "typeOfWork": "", "year": "2012", "employerPrevious": "", "jobPrevious": "", "employer": "Agri Engineering Solutions Inc", "": ""}}, "470b3ccb3f73ca51473c45e7c53a68372aa21a149f492b4af8e10053": {"c994b51170eef25f97921877489bee4cd0db339df0e4b2268ba7a8c7": {"province": "Ontario", "city": "Markham", "term": "Fall", "name": "Bhuvana Raghunathan", "sector": "", "title": "Consultant", "country": "Canada", "industry": "Healthcare", "termNumber": "5", "isWorking": "Yes", "employerUrl": "http://www.cgi.com/en/canada", "mapLocation": {"lat": 43.869137, "lng": -79.309172, "name": "CGI", "address": "30 Shields Crt, Unionville, ON, Canada"}, "typeOfWork": "", "year": "2012", "employerPrevious": "No", "jobPrevious": "No", "employer": "CGI ", "": ""}, "87dbc43429f97fed6dcd91386c17326bf8edd6531e665b46a9652b05": {"province": "Ontario", "city": "Toronto", "term": "Winter", "name": "Bhuvana Raghunathan", "sector": "", "title": "Network Engineer", "country": "Canada", "industry": "", "termNumber": "4", "isWorking": "", "employerUrl": "", "mapLocation": {"lat": 43.643257, "lng": -79.38224, "name": "PwC", "address": "18 York Street, Toronto, ON, Canada"}, "typeOfWork": "", "year": "2012", "employerPrevious": "", "jobPrevious": "", "employer": "PWC", "": ""}}, "91cd8193d8afd651a5894578e7ed0c3a0e68adef08a4cfc2a7d88e62": {"c994b51170eef25f97921877489bee4cd0db339df0e4b2268ba7a8c7": {"province": "Ontario", "city": "Ottawa", "term": "Fall", "name": "Andy Lee", "sector": "Private", "title": "R&D Engineer", "country": "Canada", "industry": "Medical Device", "termNumber": "5", "isWorking": "Yes", "employerUrl": "http://www.spartanbio.com/", "mapLocation": {"lat": 45.336616, "lng": -75.703508, "name": "Spartan Bioscience Inc", "address": "6 Gurdwara Road #204, Ottawa, ON, Canada"}, "typeOfWork": "Medical device development", "year": "2012", "employerPrevious": "no", "jobPrevious": "no", "employer": "Spartan Bioscience", "": ""}, "b0fc93f797e918f3cc741493cebf1235abb9a4e6d61de0158f793521": {"province": "Ontario", "city": "Toronto", "term": "Summer", "name": "Andy Lee", "sector": "Private", "title": "Software Developer", "country": "Canada", "industry": "Software", "termNumber": "3", "isWorking": "", "employerUrl": "", "mapLocation": {"lat": 43.512131, "lng": -80.254132, "name": "Extreme PC", "address": "50 Dovercliffe, Guelph, ON, Canada"}, "typeOfWork": "Software Development", "year": "2011", "employerPrevious": "No", "jobPrevious": "No", "employer": "Xtreme Mobility"}, "87dbc43429f97fed6dcd91386c17326bf8edd6531e665b46a9652b05": {"province": "Ontario", "city": "Mississauga", "term": "Winter", "name": "Andy Lee", "sector": "", "title": "R&D Engineering", "country": "Canada", "industry": "", "termNumber": "4", "isWorking": "", "employerUrl": "", "mapLocation": {"lat": 43.661036, "lng": -79.60013, "name": "Baylis Medical Co Inc", "address": "2645 Matheson Bl E, Cooksville, ON, Canada"}, "typeOfWork": "", "year": "2012", "employerPrevious": "", "jobPrevious": "", "employer": "Baylis Medical", "": "yes"}}, "d1b03f596c8714a94184e628d544548da6bf515389931c7c0e4a8d49": {"c994b51170eef25f97921877489bee4cd0db339df0e4b2268ba7a8c7": {"province": "Ontario", "city": "Toronto", "term": "Fall", "name": "Josh Cheung", "": "", "title": "Production Support Analyst", "country": "Canada", "industry": "IT", "year": "2012", "termNumber": "2", "employerUrl": "", "classYear": "2016", "address": "150 King St. W", "employer": "Mercer", "description": "Restructured two IT departments SharePoint sites for collaboration and automation"}, "97e27f11f5820116c87c2ac9100f440b6938db280443b4ebda94426a": {"province": "Ontario", "city": "Waterloo", "term": "Summer", "name": "Josh Cheung", "": "", "title": "Product Designer", "country": "Canada", "industry": "E-Learning", "year": "2013", "termNumber": "3", "employerUrl": "", "classYear": "2016", "address": "151 Charles St. W", "employer": "Desire2Learn", "description": "Designed settings interface, the discussions feature, and extended APIs"}, "5c7a1999689356f08ea72dd40a8fc0b185461b349c407b53d305af26": {"province": "ON", "city": "Markham", "term": "Winter", "name": "Josh Cheung", "title": "Software Developer", "country": "Canada", "industry": "Computer Software", "year": "2014", "termNumber": "4", "employerUrl": "", "classYear": "2016", "address": "3600 Steeles Ave E", "employer": "IBM", "description": "Redesign and development of the Jazz.net site"}, "87dbc43429f97fed6dcd91386c17326bf8edd6531e665b46a9652b05": {"province": "Ontario", "city": "Toronto", "term": "Winter", "name": "Josh Cheung", "title": "SharePoint Consultant", "country": "Canada", "industry": "IT", "year": "2012", "termNumber": "1", "employerUrl": "", "classYear": "2016", "address": "312 Adelaide St. W", "employer": "Imason Inc.", "description": "Migrated and restructured a hospital's website to SharePoint, aided deployment on site."}}, "5eb8cef01583844857a06e8f497c5f9e95e37b9a761b3d2aa705b5be": {"c994b51170eef25f97921877489bee4cd0db339df0e4b2268ba7a8c7": {"province": "Ontario", "city": "Markham", "term": "Fall", "name": "Christoher Ngan", "": "", "title": "Mobile Developer Intern", "country": "Canada", "industry": "Customer Relations management", "year": "2012", "termNumber": "2", "employerUrl": "", "classYear": "2016", "address": "1380 Rodick Road", "employer": "Genesys", "description": "Web App Development (HTML5, Javascript, CSS)"}}, "3876157a5bb0c846176f08d21d399a7319076bf37ec69a0b8557c9f4": {"c994b51170eef25f97921877489bee4cd0db339df0e4b2268ba7a8c7": {"province": "Various", "city": "Various", "term": "Fall", "name": "Sheldon Fernandes", "sector": "Public", "title": "Facility Assessment Engineer", "country": "Various", "industry": "Sustainable Design", "termNumber": "5", "isWorking": "Yes", "employerUrl": "http://www.stantec.com/", "mapLocation": {"lat": 40.430803, "lng": -74.187862, "name": "iCIMS", "address": "1301 New Jersey 36 #108, Hazlet, NJ, United States"}, "typeOfWork": "Sustainable Assessment", "year": "2012", "employerPrevious": "No", "jobPrevious": "No", "employer": "Stantec", "": ""}, "b0fc93f797e918f3cc741493cebf1235abb9a4e6d61de0158f793521": {"province": "Ontario", "city": "Toronto", "term": "Summer", "name": "Sheldon Fernandes", "sector": "Private", "title": "Technical Specialist", "country": "Canada", "industry": "Telecom", "termNumber": "3", "isWorking": "Yes", "employerUrl": "", "mapLocation": {"lat": 43.645702, "lng": -79.387689, "name": "Allstream", "address": "200 Wellington Street West, Toronto, ON, Canada"}, "typeOfWork": "Project Analysis", "year": "2011", "employerPrevious": "No", "jobPrevious": "No", "employer": "MTS Allstream"}, "97e27f11f5820116c87c2ac9100f440b6938db280443b4ebda94426a": {"province": "", "city": "Toronto / Geneva", "term": "Summer", "name": "Sheldon Fernandes", "sector": "Non-profit", "title": "Junior Associate", "country": "Canada / Switzerland", "industry": "Non-profit", "termNumber": "6", "isWorking": "Yes", "employerUrl": "http://earthmind.net/", "mapLocation": {"lat": 43.653963, "lng": -79.3883, "name": "Switzerland Tourism", "address": "418 University Avenue #1500, Toronto, ON, Canada"}, "typeOfWork": "Conservation program development", "year": "2013", "employerPrevious": "No", "jobPrevious": "No", "employer": "Earthmind", "": ""}, "87dbc43429f97fed6dcd91386c17326bf8edd6531e665b46a9652b05": {"province": "Ontario", "city": "Ottawa", "term": "Winter", "name": "Sheldon Fernandes", "sector": "Public", "title": "Student Environmental Officer", "country": "Canada", "industry": "Environmental", "termNumber": "4", "isWorking": "Yes", "employerUrl": "", "mapLocation": {"lat": 45.427719, "lng": -75.667555, "name": "Environment Canada", "address": "335 River Rd, Gloucester, ON, Canada"}, "typeOfWork": "Environmental Regulation for Industry", "year": "2012", "employerPrevious": "No", "jobPrevious": "No", "employer": "Environment Canada", "": ""}}, "7f562c11871cea535a9828847f9fd261008b847017c97d31c6829d47": {"b86e5931f575e14a898ce76690cfbce827a24b1f8eaaa5b602e29c0d": {"province": "ON", "city": "Kitchener", "term": "Fall", "name": "Graham Bleaney", "title": "Developer", "country": "Canada", "industry": "Computer Software", "address": "119 King St W", "termNumber": "2", "employerUrl": "http://embium.com/", "classYear": "2017", "year": "2013", "employer": "Embium", "description": "Fixed bugs, optimized for performance, implemented features"}, "466b3a3a913da2d9050efc62a8f1c9ad02ebbae5c84cd2c1c7bdf914": {"province": "Ontario", "city": "Kitchener", "term": "Winter", "name": "Graham Bleaney", "title": "Software Developer", "country": "Canada", "industry": "E-Learning", "address": "151 Charles Street West, Suite 400\n", "termNumber": "1", "employerUrl": "http://www.desire2learn.com/", "classYear": "2017", "year": "2013", "employer": "Desire2Learn", "description": "Fixed bugs, evaluated security, and implemented features on D2L's Assessment products (Dropboxes, quizes, etc)"}}, "10ae3d4d9de64bd60027677f526a0d026087d892c851498d2e41507c": {"55bd4065ca67c891c240b6626ee0ee7283afb779bac738d084bd832c": {"province": "Ontario", "city": "Mississuaga", "term": "Winter", "titlePrevious": "No", "name": "Andy", "sector": "Private", "title": "IT Analyst", "country": "Canada", "industry": "Corporate IT", "termNumber": "1", "isWorking": "Yes", "employerUrl": "", "mapLocation": {"lat": 43.605032, "lng": -79.649823, "name": "TD Bank", "address": "4555 Hurontario Street, Mississauga, ON, Canada"}, "typeOfWork": "IT Support", "year": "2010", "employerPrevious": "No", "employer": "TD Bank"}}, "9b018dd2899a8373eac4c08550182f3591e82ef1d19523db9ba925d8": {"97e27f11f5820116c87c2ac9100f440b6938db280443b4ebda94426a": {"province": "Quebec", "city": "Gatineau", "term": "Summer", "name": "Jenn Ikert", "sector": "", "title": "Asset Management", "country": "Canada", "industry": "", "termNumber": "6", "isWorking": "Yes", "employerUrl": "http://brookfieldrenewable.com/", "mapLocation": {"lat": 45.48272, "lng": -75.680645, "name": "Brookfield Renewable Power Inc.", "address": "480, boulevard de la Cite, Gatineau, QC, Canada"}, "typeOfWork": "", "year": "2013", "employerPrevious": "No", "jobPrevious": "No", "employer": "Brookfield Renewable Energy", "": ""}, "87dbc43429f97fed6dcd91386c17326bf8edd6531e665b46a9652b05": {"province": "Ontario", "city": "Ottawa", "term": "Winter", "name": "Jenn Ikert", "sector": "Public", "title": "Research Assistant", "country": "Canada", "industry": "Environment", "termNumber": "4", "isWorking": "Yes", "employerUrl": "", "mapLocation": {"lat": 45.427719, "lng": -75.667555, "name": "Environment Canada", "address": "335 River Rd, Gloucester, ON, Canada"}, "typeOfWork": "Research Assistant ", "year": "2012", "employerPrevious": "Yes", "jobPrevious": "Yes", "employer": "Environment Canada", "": ""}}, "d126a25091c5761a4b601eff7a089a967f3ce7f41c4eeee757a701dd": {"c994b51170eef25f97921877489bee4cd0db339df0e4b2268ba7a8c7": {"province": "California", "city": "Menlo Park", "term": "Fall", "name": "Chi Wai Kenneth \"Chiwang\" NG", "sector": "Private", "title": "Software Engineering Intern", "country": "USA", "industry": "Social Media", "termNumber": "5", "isWorking": "Yes", "employerUrl": "https://www.facebook.com/facebook", "mapLocation": {"lat": 37.483258, "lng": -122.149623, "name": "Facebook Inc.", "address": "1601 Willow Road, Menlo Park, CA, United States"}, "typeOfWork": "Software", "year": "2012", "employerPrevious": "No", "jobPrevious": "No", "employer": "Facebook", "": ""}}, "66815f471bb72b43c1b41d480852ba122abb4f84784678e2bbeed731": {"55bd4065ca67c891c240b6626ee0ee7283afb779bac738d084bd832c": {"province": "Ontario", "city": "Ottawa", "term": "Winter", "titlePrevious": "n/a", "name": "Zhang-Yao Cheng", "sector": "Private", "title": "Verification Specialist", "country": "Canada", "industry": "Agriculture?", "termNumber": "1", "isWorking": "Yes", "employerUrl": "", "mapLocation": {"lat": 45.364569, "lng": -75.733137, "name": "Agriculture and Agri-Food Canada", "address": "Ottawa, ON, Canada"}, "typeOfWork": "Web QA", "year": "2010", "employerPrevious": "No", "employer": "Agriculture and Agri-Food Canada"}, "b0fc93f797e918f3cc741493cebf1235abb9a4e6d61de0158f793521": {"province": "Ontario", "city": "Waterloo", "term": "Summer", "name": "Zhang-Yao Cheng", "sector": "Private", "title": "BlackBerry Mobile Application Developer", "country": "Canada", "industry": "Software", "termNumber": "3", "isWorking": "Yes", "employerUrl": "", "mapLocation": {"lat": 43.479674, "lng": -80.543148, "name": "Research In Motion", "address": "176 Columbia Street West, Waterloo, ON, Canada"}, "typeOfWork": "BB App Dev", "year": "2011", "employerPrevious": "No", "jobPrevious": "No", "employer": "RIM"}, "87dbc43429f97fed6dcd91386c17326bf8edd6531e665b46a9652b05": {"province": "Ontario", "city": "Toronto", "term": "Winter", "name": "Zhang-Yao Cheng", "sector": "Private", "title": "Software Developer", "country": "Canada", "industry": "Everything lyric related", "termNumber": "4", "isWorking": "Yes", "employerUrl": "", "mapLocation": {"lat": 43.762318, "lng": -79.4108, "name": "LyricFind", "address": "40 Eglinton Ave E #400, Toronto, ON, Canada"}, "typeOfWork": "Android music app with lyric sync", "year": "2012", "employerPrevious": "No", "jobPrevious": "No", "employer": "LyricFind", "": ""}}, "4cc36d7640221d28166a55a16f3e2c33c2c765f0a68f3cbb3664a02e": {"c994b51170eef25f97921877489bee4cd0db339df0e4b2268ba7a8c7": {"province": "California", "city": "San Jose", "term": "Fall", "name": "Adam Thagard", "sector": "Private", "title": "Mechanical Engineer", "country": "USA", "industry": "Semiconductors", "termNumber": "5", "isWorking": "Yes", "employerUrl": "http://www.cypress.com/", "mapLocation": {"lat": 37.410216, "lng": -121.950944, "name": "Cypress Semiconductor Co", "address": "198 Champion Court, San Jose, CA, United States"}, "typeOfWork": "mechanical & electrical design", "year": "2012", "employerPrevious": "No", "jobPrevious": "No", "employer": "Cypress Semiconductor", "": ""}, "87dbc43429f97fed6dcd91386c17326bf8edd6531e665b46a9652b05": {"province": "California", "city": "Palo Alto", "term": "Winter", "name": "Adam Thagard", "sector": "Private", "title": "inPulse smartwatch embedded developer", "country": "USA", "industry": "", "termNumber": "4", "isWorking": "Yes", "employerUrl": "", "mapLocation": {"lat": 37.4418834, "lng": -122.1430195, "name": "Palo Alto", "address": "Palo Alto, CA, USA"}, "typeOfWork": "Software", "year": "2012", "employerPrevious": "No", "jobPrevious": "No", "employer": "Allerta Inc.", "": ""}}, "87cb53cbdcb3422d4dffd03535f4f8e5666860b18909a19b50d499de": {"97e27f11f5820116c87c2ac9100f440b6938db280443b4ebda94426a": {"province": "Ontario", "city": "Waterloo", "term": "Summer", "name": "Christopher Ngan", "": "", "title": "Product Developer", "country": "Canada", "industry": "Medical Devices", "year": "2013", "termNumber": "3", "employerUrl": "", "classYear": "2016", "address": "295 Hagely Blvd", "employer": "Nicoya Lifescience", "description": "Hardware and Software development."}, "87dbc43429f97fed6dcd91386c17326bf8edd6531e665b46a9652b05": {"province": "Ontario", "city": "Markham", "term": "Winter", "name": "Christopher Ngan", "title": "Junior Programmer", "country": "Canada", "industry": "Civil Engineering", "year": "2012", "termNumber": "1", "employerUrl": "", "classYear": "2016", "address": "70 Valleywood Dr", "employer": "Cole Engineering Ltd", "description": "Software Developer (.NET and Android)"}}, "79a1cbf353c0c6a38d4ebe991af75d0f02bb3bd07cc5c48cb91cb457": {"55bd4065ca67c891c240b6626ee0ee7283afb779bac738d084bd832c": {"province": "Ontario", "city": "Toronto", "term": "Winter", "titlePrevious": "No", "name": "Cat Mercer", "sector": "Private", "title": "CPU Support Analyst", "country": "Canada", "industry": "Banking", "termNumber": "1", "isWorking": "Yes", "employerUrl": "", "mapLocation": {"lat": 43.642152, "lng": -79.381075, "name": "TD Canada Trust", "address": "15 York Street, Toronto, ON, Canada"}, "typeOfWork": "Support/Testing", "year": "2010", "employerPrevious": "No", "employer": "TD Securities"}, "c994b51170eef25f97921877489bee4cd0db339df0e4b2268ba7a8c7": {"province": "Ontario", "city": "Waterloo", "term": "Fall", "name": "Cat Mercer", "sector": "Public ?", "title": "Research Software Developer", "country": "Canada", "industry": "No idea", "termNumber": "5", "isWorking": "Yes", "employerUrl": "http://uwaterloo.ca", "mapLocation": {"lat": 43.472285, "lng": -80.544858, "name": "University of Waterloo", "address": "200 University Avenue West, Waterloo, ON, Canada"}, "typeOfWork": "Research/software", "year": "2012", "employerPrevious": "No", "jobPrevious": "No", "employer": "University of Waterloo", "": ""}, "b0fc93f797e918f3cc741493cebf1235abb9a4e6d61de0158f793521": {"province": "Ontario", "city": "Toronto", "term": "Summer", "name": "Cat Mercer", "sector": "Public", "title": "Security Analyst", "country": "Canada", "industry": "eHealth", "termNumber": "3", "isWorking": "Yes", "employerUrl": "", "mapLocation": {"lat": 43.658449, "lng": -79.387743, "name": "Centre for Global eHealth Innovation", "address": "Toronto General Hospital, R. Fraser Elliott Building, 190 Elizabeth Street, 4th Floor, Toronto, ON, Canada"}, "typeOfWork": "General", "year": "2011", "employerPrevious": "No", "jobPrevious": "No", "employer": "eHealth Ontario"}, "97e27f11f5820116c87c2ac9100f440b6938db280443b4ebda94426a": {"province": "Ontario", "city": "Waterloo", "term": "Summer", "name": "Cat Mercer", "sector": "Private", "title": "Software Developer", "country": "Canada", "industry": "Forensic software", "termNumber": "6", "isWorking": "Yes", "employerUrl": "http://www.magnetforensics.com/", "mapLocation": {"lat": 43.433575, "lng": -80.445121, "name": "Stryve Group", "address": "1241 Weber Street East, Kitchener, ON, Canada"}, "typeOfWork": "Software development", "year": "2013", "employerPrevious": "No", "jobPrevious": "No", "employer": "Magnet Forensics", "": ""}, "87dbc43429f97fed6dcd91386c17326bf8edd6531e665b46a9652b05": {"province": "Ontario", "city": "Toronto", "term": "Winter", "name": "Cat Mercer", "sector": "Private", "title": "Geomechanics Intern", "country": "Canada", "industry": "Software", "termNumber": "4", "isWorking": "Yes", "employerUrl": "", "mapLocation": {"lat": 43.65436, "lng": -79.387737, "name": "Rocscience Inc.", "address": "439 University Avenue, Toronto, ON, Canada"}, "typeOfWork": "Software", "year": "2012", "employerPrevious": "No", "jobPrevious": "No", "employer": "Rocscience", "": ""}}, "1d6f563e340665002c0c6dd70512ef4f35b2836878f30c227ceb7aaf": {"97e27f11f5820116c87c2ac9100f440b6938db280443b4ebda94426a": {"province": "Ontario", "city": "Cambridge", "term": "Summer", "name": "Nachiket Yardi", "sector": "", "title": "FAE - RX350h development", "country": "Canada", "industry": "Automotive, manufacturing", "termNumber": "6", "isWorking": "Yes", "employerUrl": "http://www.toyota.com/", "mapLocation": {"lat": 43.40757, "lng": -80.331524, "name": "Cambridge Toyota", "address": "2400 Eagle Street North, Cambridge, ON, Canada"}, "typeOfWork": "Electrical - Mechanical Design ", "year": "2013", "employerPrevious": "Yes", "jobPrevious": "Little bit", "employer": "Toyota", "": ""}, "87dbc43429f97fed6dcd91386c17326bf8edd6531e665b46a9652b05": {"province": "Ontario", "city": "St.Catherines", "term": "Winter", "name": "Nachiket Yardi", "sector": "", "title": "Project management team", "country": "Canada", "industry": "Construction", "termNumber": "4", "isWorking": "Yes", "employerUrl": "", "mapLocation": {"lat": 43.1593745, "lng": -79.2468626, "name": "St Catharines", "address": "St Catharines, ON, Canada"}, "typeOfWork": "Project management", "year": "2012", "employerPrevious": "No", "jobPrevious": "No", "employer": "PCL Constructors", "": ""}}, "55edbda957753e805ecebb8e8d725309682b843d2e95bfa17138876f": {"271fca6f897eba601074c62b07eabe30b0a837dfcd45536a1ad55dd0": {"province": "ON", "city": "Toronto", "term": "Winter", "titlePrevious": "N", "name": "Sung Cheul Hong", "sector": "Private", "title": "Mobile Software Engineer", "country": "Canada", "industry": "Software", "year": "2011", "termNumber": "1", "isWorking": "Y", "employerUrl": "http://www.osellus.com/", "classYear": "2015", "mapLocation": {"lat": 43.649695, "lng": -79.382392, "name": "Osellus Inc", "address": "100 Adelaide W, Toronto, ON, Canada"}, "address": "", "employerPrevious": "N", "employer": "Osellus Inc", "description": "Full Stack iOS developer"}, "b86e5931f575e14a898ce76690cfbce827a24b1f8eaaa5b602e29c0d": {"province": "California", "city": "Palo Alto", "term": "Fall", "titlePrevious": "N", "name": "Sung Cheul Hong", "sector": "Public", "title": "Product Manager", "country": "USA", "industry": "Tech/social commerce", "year": "2013", "termNumber": "5", "isWorking": "U", "employerUrl": "http://www.groupon.com/press/about-groupon", "classYear": "2015", "address": "", "employerPrevious": "N", "employer": "Groupon", "description": "Mobile"}, "2bbb78e381ee07e7f8422f2cf90f096602f38e6a73cec9598daf4704": {"province": "ON", "city": "Kitchener", "term": "Summer", "titlePrevious": "N", "name": "Sung Cheul Hong", "sector": "Public", "title": "Business Analyst", "country": "Canada", "industry": "Finance/IT", "year": "2012", "termNumber": "3", "isWorking": "Y", "employerUrl": "http://www.manulife.ca/", "classYear": "2015", "mapLocation": {"lat": 43.453762, "lng": -80.481436, "name": "Manulife Securities Incorporated", "address": "3rd Floor 209 Frederick St, Kitchener, ON, Canada"}, "address": "", "employerPrevious": "N", "employer": "Manulife Financial Inc", "description": "Gathered user requirements, created specification documents, liaised between business partners and offshore developers to deliver full software solutions"}, "466b3a3a913da2d9050efc62a8f1c9ad02ebbae5c84cd2c1c7bdf914": {"province": "ON", "city": "Waterloo", "term": "Winter", "titlePrevious": "N", "name": "Sung Cheul Hong", "sector": "Public", "title": "Project Manager", "country": "Canada", "industry": "Tech", "year": "2013", "termNumber": "4", "isWorking": "Y", "employerUrl": "http://ca.blackberry.com/", "classYear": "2015", "mapLocation": {"lat": 43.479674, "lng": -80.543148, "name": "Research In Motion", "address": "176 Columbia Street West, Waterloo, ON, Canada"}, "address": "", "employerPrevious": "N", "employer": "BlackBerry ", "description": "Developed new operational risk management program as a result of internal corporate restructuring"}, "0679b25b14f91f4bb1aa1249d91cfb1450f1466491f90fc8a1c86fb2": {"province": "ON", "city": "Toronto", "term": "Fall", "titlePrevious": "N", "name": "Sung Cheul Hong", "sector": "Private", "title": "Software QA Analyst", "country": "Canada", "industry": "Hardware/Software", "year": "2011", "termNumber": "2", "isWorking": "Y", "employerUrl": "http://store.kobobooks.com/en-ca/", "classYear": "2015", "mapLocation": {"lat": 43.637589, "lng": -79.423293, "name": "Kobo", "address": "135 Liberty Street #101, Toronto, ON, Canada"}, "address": "", "employerPrevious": "N", "employer": "Kobo Inc", "description": "Tested all aspects of software and hardware components of the Kobo Vox e-reader tablet launch"}}, "75f34a2af246d2d6f8b2bd1fc030bc1831930324f1741e017f4653a8": {"271fca6f897eba601074c62b07eabe30b0a837dfcd45536a1ad55dd0": {"province": "ON", "city": "Downsview, Toronto", "term": "Winter", "titlePrevious": "N", "name": "Christopher Ong", "sector": "Public", "title": "Research Assistant ", "country": "Canada", "industry": "Software", "year": "2011", "termNumber": "1", "isWorking": "Y", "employerUrl": "http://www.forces.gc.ca/en/", "classYear": "2015", "mapLocation": {"lat": 43.671394, "lng": -79.386405, "name": "Department Of National Defence", "address": "15 Asquith St, Toronto, ON, Canada"}, "address": "", "employerPrevious": "N", "employer": "Department of National Defense", "description": "Assisting with human factors research and creating user inferfaces for software in development"}}, "9f056645158a8c7a191762febf3eb05288fbe048b0318e40aab06c6f": {"55bd4065ca67c891c240b6626ee0ee7283afb779bac738d084bd832c": {"province": "Ontario", "city": "Sudbury", "term": "Winter", "titlePrevious": "No", "name": "Marc-Andr\u00e9 Simard", "sector": "Private", "title": "Digital Media Specialist", "country": "Canada", "industry": "Software", "termNumber": "1", "isWorking": "Yes", "employerUrl": "", "mapLocation": {"lat": 46.48999999999999, "lng": -81.00999999999999, "name": "Greater Sudbury", "address": "Greater Sudbury, ON, Canada"}, "typeOfWork": "Business and web development, creative content, random start-up work", "year": "2010", "employerPrevious": "No", "employer": "CommSequence, Inc."}, "c994b51170eef25f97921877489bee4cd0db339df0e4b2268ba7a8c7": {"province": "Ontario", "city": "Toronto", "term": "Fall", "name": "Marc-Andr\u00e9 Simard", "sector": "Private", "title": "Market Strategist", "country": "Canada", "industry": "Social Media", "termNumber": "5", "isWorking": "Yes", "employerUrl": "https://www.facebook.com/facebook", "mapLocation": {"lat": 43.776458, "lng": -79.399339, "name": "Real Estate Marketing (Google, Facebook - Online advertising)", "address": "218 Wilfred Avenue, Toronto, ON, Canada"}, "typeOfWork": "Business Dev.", "year": "2012", "employerPrevious": "No", "jobPrevious": "No", "employer": "Facebook", "": ""}, "b0fc93f797e918f3cc741493cebf1235abb9a4e6d61de0158f793521": {"province": "Northern Region", "city": "Karaga", "term": "Summer", "name": "Marc-Andr\u00e9 Simard", "sector": "Not for Profit", "title": "Junior Fellow - Public Sector Agriculture", "country": "Ghana", "industry": "International Development", "termNumber": "3", "isWorking": "Yes", "employerUrl": "", "mapLocation": {"lat": 9.924999999999999, "lng": -0.4297222, "name": "Karaga", "address": "Karaga, Ghana"}, "typeOfWork": "Technology Adoption - Agriculture", "year": "2011", "employerPrevious": "No", "jobPrevious": "No", "employer": "Engineers Without Borders"}, "97e27f11f5820116c87c2ac9100f440b6938db280443b4ebda94426a": {"province": "Ontario", "city": "Toronto", "term": "Summer", "name": "Marc-Andr\u00e9 Simard", "sector": "Private", "title": "Business Analyst", "country": "Canada", "industry": "Management Consulting", "termNumber": "6", "isWorking": "Yes", "employerUrl": "http://www.mckinsey.com/", "mapLocation": {"lat": 50.11107, "lng": 8.672598, "name": "McKinsey & Company Inc.", "address": "Taunustor 2, Frankfurt, Germany"}, "typeOfWork": "Analyst", "year": "2013", "employerPrevious": "No", "jobPrevious": "No", "employer": "McKinsey & Co. ", "": ""}, "87dbc43429f97fed6dcd91386c17326bf8edd6531e665b46a9652b05": {"province": "Ontario", "city": "Brockville", "term": "Winter", "name": "Marc-Andr\u00e9 Simard", "sector": "Private", "title": "Manufacturing Engineering", "country": "Canada", "industry": "Manufacturing", "termNumber": "4", "isWorking": "Yes", "employerUrl": "", "mapLocation": {"lat": 50.695003, "lng": 6.825407, "name": "Procter & Gamble Manufacturing GmbH", "address": "Procter-und-Gamble-Stra\u00dfe 1-5, Euskirchen, Germany"}, "typeOfWork": "Seeking efficiencies", "year": "2012", "employerPrevious": "No", "jobPrevious": "No", "employer": "Procter & Gamble", "": ""}}, "9f1ce220c2eeff913ccbded7adcc9d524789ad3e3652ff7123d5f2c4": {"c994b51170eef25f97921877489bee4cd0db339df0e4b2268ba7a8c7": {"province": "Washington", "city": "Seattle", "term": "Fall", "name": "Pratik Konnur", "sector": "Private", "title": "Software Development Engineer", "country": "USA", "industry": "eCommerce, etc", "termNumber": "5", "isWorking": "Yes", "employerUrl": "http://www.amazon.com/Careers-Homepage/b?ie=UTF8&node=239364011", "mapLocation": {"lat": 47.622462, "lng": -122.33699, "name": "Amazon", "address": "410 Terry Avenue North, Seattle, WA, United States"}, "typeOfWork": "Software Dev", "year": "2012", "employerPrevious": "No", "jobPrevious": "No", "employer": "Amazon", "": ""}, "97e27f11f5820116c87c2ac9100f440b6938db280443b4ebda94426a": {"province": "Ontario", "city": "Toronto", "term": "Summer", "name": "Pratik Konnur", "sector": "Private", "title": "Software Developer", "country": "Canada", "industry": "", "termNumber": "6", "isWorking": "Yes", "employerUrl": "http://www.outsideiq.com/", "mapLocation": {"lat": 43.654783, "lng": -79.458752, "name": "Intelliware Development Inc.", "address": "1709 Bloor Street West #200, Toronto, ON, Canada"}, "typeOfWork": "Software Dev", "year": "2013", "employerPrevious": "No", "jobPrevious": "No", "employer": "Outside Intelligence", "": ""}, "87dbc43429f97fed6dcd91386c17326bf8edd6531e665b46a9652b05": {"province": "Ontario", "city": "Waterloo ", "term": "Winter", "name": "Pratik Konnur", "sector": "", "title": "Test Application Developer", "country": "Canada", "industry": "", "termNumber": "4", "isWorking": "", "employerUrl": "", "mapLocation": {"lat": 43.479674, "lng": -80.543148, "name": "Research In Motion", "address": "176 Columbia Street West, Waterloo, ON, Canada"}, "typeOfWork": "", "year": "2012", "employerPrevious": "", "jobPrevious": "", "employer": "RIM", "": ""}}, "b1a5fc2c7f657a903efb23eb0b5c1d802a19940c488c75478294d428": {"b86e5931f575e14a898ce76690cfbce827a24b1f8eaaa5b602e29c0d": {"province": "ON", "city": "Toronto", "term": "Fall", "name": "Karan Thukral", "title": "Mobile Application Developer", "country": "Canada", "industry": "Computer Software", "address": "250 Front Street West", "termNumber": "2", "employerUrl": "http://www.cbc.ca", "classYear": "2017", "year": "2013", "employer": "CBC", "description": "Worked primarily with the iOS platform and the recently releases iOS 7 SDK. Created a CBC News application from scratch to run completely natively on iOS 7. Also created an HTML parser to convert \"Stories\" provided from the backend to add dynamic views and formatting."}, "466b3a3a913da2d9050efc62a8f1c9ad02ebbae5c84cd2c1c7bdf914": {"province": "Ontario", "city": "Waterloo", "term": "Winter", "name": "Karan Thukral", "title": "Mobile QA Specialist", "country": "Canada", "industry": "Computer Software", "address": "420 Weber Street North", "termNumber": "1", "employerUrl": "kik.com", "classYear": "2017", "year": "2013", "employer": "Kik Interactive", "description": "Did manual testing on both the iOS and Android versions of Kik messanger for all new features and before every update. Also worked with Calabash Android to create and manage Automated test scripts to reduce the amount of manaual testing to be done on Android devices."}}, "7f577136422554177041e6a26b01b7f1c865e29f64241daaa669dba3": {"b86e5931f575e14a898ce76690cfbce827a24b1f8eaaa5b602e29c0d": {"province": "ON", "city": "Waterloo", "term": "Fall", "name": "Matt Jones", "title": "Content Developer", "country": "Canada", "industry": "Computer Software", "address": "615 Kumpf Drive", "termNumber": "2", "employerUrl": "http://www.maplesoft.com/", "classYear": "2017", "year": "2013", "employer": "Maplesoft", "description": "Author physics and calc questions for textbooks' online content"}, "466b3a3a913da2d9050efc62a8f1c9ad02ebbae5c84cd2c1c7bdf914": {"province": "Ontario", "city": "Markham", "term": "Winter", "name": "Matt Jones", "title": "CAD Engineer", "country": "Canada", "industry": "Civil Engineering", "address": "625 Cochrane Dr.", "termNumber": "1", "employerUrl": "delcan.com", "classYear": "2017", "year": "2013", "employer": "Delcan Corportation", "description": "Used Creo Parametric to help lay out their new design of a passenger train"}}, "00571914413e76cfc4eadfc7dc12a403957f6626cde05ae0cd2b4b39": {"87dbc43429f97fed6dcd91386c17326bf8edd6531e665b46a9652b05": {"province": "Ontario", "city": "Waterloo", "term": "Winter", "name": "Megan McNeil", "sector": "Private", "title": "Web Designer/Development", "country": "Canada", "industry": "", "termNumber": "4", "isWorking": "Yes", "employerUrl": "", "mapLocation": {"lat": 43.507661, "lng": -80.527443, "name": "Teledyne DALSA", "address": "605 McMurray, Waterloo, ON, Canada"}, "typeOfWork": "Web Dev", "year": "2012", "employerPrevious": "No", "jobPrevious": "No ", "employer": "Teledyne DALSA", "": ""}}, "b7d075e7cbdfc860f901bae40b77ef0f8923d70f1e8cd28065412a5d": {"5c7a1999689356f08ea72dd40a8fc0b185461b349c407b53d305af26": {"province": "ON", "city": "Oakville", "term": "Winter", "name": "Katherine Carras", "title": "Business Analyst & Project Coordinator", "country": "Canada", "industry": "Automotive", "year": "2014", "termNumber": "1", "employerUrl": "http://www.ford.ca/", "classYear": "2018", "address": "The Canadian Road", "employer": "Ford Motor Company of Canada", "description": ""}}, "1299fc37c9704c582033ec88cf8bbc1d6b75b07a3ac40c9f70b186fa": {"5c7a1999689356f08ea72dd40a8fc0b185461b349c407b53d305af26": {"province": "ON", "city": "Toronto", "term": "Winter", "name": "Krishn Ramesh", "title": "Front End Web Developer", "country": "Canada", "industry": "Computer Software", "year": "2014", "termNumber": "1", "employerUrl": "http://www.nthgensoftware.com/", "classYear": "2018", "address": "4711 Yonge Street", "employer": "NthGen Software", "description": ""}}, "147c3a3fc28120a4de778d04f89ae7b77cb9869b08dd4d3363269172": {"5c7a1999689356f08ea72dd40a8fc0b185461b349c407b53d305af26": {"province": "ON", "city": "Toronto", "term": "Winter", "name": "Raunaq Suri", "title": "Software Developer", "country": "Canada", "industry": "Nonprofit", "year": "2014", "termNumber": "1", "employerUrl": "http://oicr.on.ca/", "classYear": "2018", "address": "MaRS Centre, South Tower, 101 College Street, Suite 800", "employer": "Ontario Institute for Cancer Research", "description": ""}}, "ac2b75e1d02fdffddbb58efdc33b9eb781fda9092674354f4d506296": {"97e27f11f5820116c87c2ac9100f440b6938db280443b4ebda94426a": {"province": "Massachussets", "city": "Boston", "term": "Summer", "name": "Harsh Dave", "sector": "Public", "title": "Designer", "country": "USA", "industry": "Software", "termNumber": "6", "isWorking": "Yes", "employerUrl": "http://www.microsoft.com/en-ca/default.aspx", "mapLocation": {"lat": 42.361316, "lng": -71.081309, "name": "Microsoft New England Research and Development Center", "address": "1 Memorial Drive #1, Cambridge, MA, United States"}, "typeOfWork": "UI/UX Design", "year": "2013", "employerPrevious": "No", "jobPrevious": "No", "employer": "Microsoft", "": ""}, "87dbc43429f97fed6dcd91386c17326bf8edd6531e665b46a9652b05": {"province": "Conneticut", "city": "Shelton", "term": "Winter", "name": "Harsh Dave", "sector": "", "title": "Security Developer", "country": "USA", "industry": "", "termNumber": "4", "isWorking": "", "employerUrl": "", "mapLocation": {"lat": 41.268939, "lng": -73.127434, "name": "HYATT house Shelton", "address": "830 Bridgeport Avenue, Shelton, CT, United States"}, "typeOfWork": "Cryptography/Embedded Systems Design", "year": "2012", "employerPrevious": "", "jobPrevious": "", "employer": "Pitney Bowes", "": "Yes"}}}